restId,name,cuisine,aggregate_rating,rating_votes,dining_rating,dining_review_count,delivery_rating,delivery_review_count,timing,people_say,top_dishes,address,location_longitude,location_latitude,url,cost_for_two
19575264,Goldy Da Dhaba,"North Indian, Mughlai, Biryani",3.2,61,,0,3.2,61,11am – 11pm (Today),,,"Shop 3, Kalamkar Corner, Sr. 75, Hissa 1/A, Baner, Pune",73.7841488421,18.5618455116,https://www.zomato.com/pune/goldy-da-dhaba-baner,₹200 for one order (approx.)
18902017,The Good Bowl,"North Indian, Asian, Biryani, Pasta",3.9,2227,,0,3.9,2227,"12midnight – 2am, 10am – 12midnight (Today)",,,"Shop 19 & 20, A2 Building, Near DSK Ranwara, Bavdhan, Pune",73.7776880711,18.5203200532,https://www.zomato.com/pune/the-good-bowl-bavdhan,₹200 for one order (approx.)
20019032,Punjabi By Nature,"North Indian, Mughlai, Kebab, Biryani, Street Food, Desserts",0,41,,,,,11am – 11:30pm (Today),,,"Ground First Floor, Nine Hills Plaza, G Building, Plot A, S 43/44, Hissa 1 to 9+11(p), Mohammadwadi, Pune",73.9089712,18.4760613,https://www.zomato.com/pune/punjabi-by-nature-nibm-road,"₹1,200 for two people (approx.)"
6506021,The Cake & Cream Factory,Bakery,3.4,73,3.4,73,3.8,414,9:30am – 11:30pm (Today),,,"Shop 6, CTS 148, Niyoshi Park, Aundh, Pune",73.8105840236,18.5608030087,https://www.zomato.com/pune/the-cake-cream-factory-1-aundh,₹200 for two people (approx.)
19991066,The Shawarma,Lebanese,3.9,95,,0,3.9,95,11am – 11pm (Today),,,"Shop 5/6, Plot 17, Survey 148/150/151, Disha Apartment, Aundh, Pune",73.8113189489,18.56065585,https://www.zomato.com/pune/the-shawarma-aundh,₹150 for one order (approx.)
18984006,Hotel Jai Malhar,"North Indian, Seafood",3.5,8,3.5,8,4.1,208,"12noon – 3:30pm, 7pm – 11:30pm (Today)","Value for Money, Good Quality, Packaging, Taste",,"Masurgarh Colony, Near Bank Of Maharashtra, Ajmera Road, Pimpri, Pune",73.8030315936,18.6313997325,https://www.zomato.com/pune/hotel-jai-malhar-pimpri,₹600 for two people (approx.)
20098915,Panjabi Rasoi,Fast Food,0,0,,,,,11am – 11pm (Today),,,"24, Food Court Serial 12/1, Near Bharat Petrol Pump, Pimple Nilakh, Pune",73.787437,18.577036,https://www.zomato.com/pune/panjabi-rasoi-pimple-nilakh,₹100 for one order (approx.)
19665530,OMG Burgers!,"Burger, Fast Food, Beverages, Biryani, Shake",3.6,4,3.6,4,4,272,"12midnight – 3am, 12noon – 12midnight (Today)",,,"Shop 9 A, Allied Heights, Opposite Reliance Fresh, Salunkhe Vihar Road, Pune",73.897727,18.481797,https://www.zomato.com/pune/omg-burgers-salunkhe-vihar-road,₹350 for two people (approx.)
19823872,Mummy Ki Roti,Burger,0,3,,0,,3,"11:30am – 3:30pm, 6:30pm – 11pm (Today)",,,"Ajmera Main Road, Panchaganga Building, Ajmera Colony, Pimpri, Pune",73.8173735973,18.6175097993,https://www.zomato.com/pune/mummy-ki-roti-pimpri,₹150 for one order (approx.)
19078049,Royal Cake And More,"Bakery, Desserts, Fast Food, Beverages",3.2,495,,0,3.2,495,,"Affordable Prices, Contactless Delivery, Spill Proof Packaging, Best Food under Best Budget, Extensive Menu, Timely Service","Choco Chip Pastry, Cheesecake, Chocolate, Fries, Cakes","Survey 49/2/1A/1B, Lane 5, Kondhwa Road, Kondhwa, Pune",73.8766179979,18.4484042693,https://www.zomato.com/pune/royal-cake-and-more-kondhwa,₹100 for one order (approx.)
6507122,Sri Murlidhar Veg Thali,"Gujarati, Maharashtrian",4.2,195,4.2,195,4.2,1319,"12noon – 3pm, 7:30pm – 10:30pm (Today)","Reasonable Price, Best Place, Food Quality, Good Place, Service, Ambience",,"219/20, Muralidhar Apartment, Kelkar Road, Narayan Peth, Sadashiv Peth, Pune",73.8456401601,18.5145752773,https://www.zomato.com/pune/sri-murlidhar-veg-thali-sadashiv-peth,₹400 for two people (approx.)
19287033,Hotel Sanika,"Maharashtrian, Street Food",3.3,68,,0,3.3,68,1pm – 1:30am (Today),,,"Laxmi Complex, Near Nikhil Dairy, GH Raisoni College Road, Wagholi, Pune",73.9828012884,18.5765917948,https://www.zomato.com/pune/hotel-sanika-wagholi,₹100 for one order (approx.)
19883690,Arabian Mexico Restaurant,"North Indian, Chinese, Maharashtrian, Biryani",0,3,,0,,3,7:40am – 11:55pm (Today),,,"817, Bhawani Peth, Camp Area, Pune",73.8720044821,18.5109348758,https://www.zomato.com/pune/arabian-mexico-restaurant-camp-area,₹300 for one order (approx.)
19480435,Itminaan Biryani - Dum Pukht,"Biryani, North Indian, Mughlai",3.8,372,,0,3.8,372,11am – 1am (Today),,,"S 200 /2 /200 /2 /1, Shop 3, Palash Plus Centermall, Wakad, Pune",73.7700236589,18.6000675921,https://www.zomato.com/pune/itminaan-biryani-dum-pukht-wakad,₹300 for one order (approx.)
6507015,Kaka Halwai Sweets,"Mithai, Street Food",4.2,885,,0,4.2,885,9am – 9:30pm (Today),,,"Shop 5 & 6, Survey 17/A/1/2/1/3, Fun N Fun Shopping Center, Wanwadi, Fatima Nagar, Pune",73.9013181254,18.5056919544,https://www.zomato.com/pune/kaka-halwai-sweets-fatima-nagar,₹100 for one order (approx.)
19967551,Marrakesh,"Lebanese, North Indian, Mughlai, Biryani, Rolls, Desserts",0,8,,,,,11am – 11:30pm (Today),,,"Gala 1, First floor, Milakat, Ward 03, SN 13/6/7/2, Near Water tank, Nanded City, Shivane, Pune",73.7919638,18.4551164,https://www.zomato.com/pune/marrakesh-shivane,₹500 for two people (approx.)
19992701,Cafe Rosewood,"Pizza, Sandwich, Fast Food, Beverages",3.3,9,3.3,9,,7,11am – 11pm (Today),,,"Shop 08, Shiv Road, Opposite GK Palacio, Bhosari, Pune",73.8315595686,18.6731353829,https://www.zomato.com/pune/cafe-rosewood-bhosari,₹300 for two people (approx.)
19604871,Cafe Peter,"Cafe, Continental, Oriental, Korean, Fast Food, Desserts, Beverages",2.7,11,2.7,11,4,94,8:30am – 11pm (Today),"Food Presentation, Extensive Menu, Timely Service, Delicious Food, Great Portions, Good Quality",,"Survey 586/A1, Plot 10, Al Amin Cooperative Housing Society, Market Yard, Bibvewadi, Pune",73.8714064431,18.4878526799,https://www.zomato.com/pune/cafe-peter-bibvewadi,₹900 for two people (approx.)
18893962,Deokar Biryani House,Biryani,3.5,9,3.5,9,4,33,11:29am – 11pm (Today),,,"Opposite Mahanagar Bank, Wadgaon Shinde Road, Sathe Nagar, Lohegaon, Pune",73.9251535758,18.5984692317,https://www.zomato.com/pune/deokar-biryani-house-lohegaon,₹200 for two people (approx.)
18862882,Hotel Lazeez,"North Indian, Chinese, Fast Food, Street Food, Shake",2.6,17,2.6,17,3.8,453,8am – 11:30pm (Today),,,"161, Near Rajiv Gandhi Hospital, Yerawada, Pune",73.8844839111,18.5452101567,https://www.zomato.com/pune/hotel-lazeez-yerawada,₹500 for two people (approx.)
12251,Sheetal Refreshments,"North Indian, South Indian, Chinese, Street Food, Fast Food, Desserts, Beverages, Shake",3.8,74,3.8,74,4,1344,"11am – 3:30pm, 6:20pm – 10pm (Today)",,,"Opposite MIDC Office, Prestige Complex, Shri Anand Rushiji Marg, Telco Road, Chinchwad, Pune",73.7946460024,18.641513585,https://www.zomato.com/pune/sheetal-refreshments-chinchwad,₹600 for two people (approx.)
19950646,Chatori Dilli,"Street Food, Rolls, North Indian, Beverages",3.3,4,3.3,4,3.9,24,12noon – 9:45pm (Today),,,"Shop 1, East Street, Pune",73.8798675,18.5119034,https://www.zomato.com/pune/chatori-dilli-1-east-street,₹400 for two people (approx.)
19008554,Absolute Punjab,"North Indian, Chinese, Continental, Mughlai, Oriental",4.4,236,,0,4.4,236,12noon – 11pm (Today),,,"Survey 161/1, First Floor, West End Mall, Aundh, Pune",73.807153143,18.5618963652,https://www.zomato.com/pune/absolute-punjab-aundh,₹200 for one order (approx.)
19857053,Kolhapur Spice- The Taste of Kolhapur,"Mughlai, Maharashtrian",0,11,,1,,11,"11am – 3:30pm, 7pm – 11pm (Today)",,,"121/122, Rambaug Colony, Karve Road, Kothrud, Pune",73.8153827,18.5110103,https://www.zomato.com/pune/kolhapur-spice-the-taste-of-kolhapur-kothrud,₹500 for two people (approx.)
19764737,Wrollz,Rolls,0,18,,0,,18,7am – 11pm (Today),,,"667, First Floor, Taboot Street, Camp Area, Pune",73.8779990391,18.5158773364,https://www.zomato.com/pune/wrollz-camp-area,₹200 for one order (approx.)
19344217,Bansoori Pure Veg,"North Indian, Chinese, Fast Food, South Indian, Desserts, Beverages",3.2,5,3.2,5,,3,9am – 11:30pm (Today),,,"Plot 114/1, Baner - Mahalunge Road, Baner, Pune",73.7734880671,18.5657859877,https://www.zomato.com/pune/bansoori-pure-veg-baner,₹500 for two people (approx.)
19604545,Biryani House,"North Indian, Biryani",0,0,,0,,0,11am – 10:30pm (Today),,,"Survey 169/1, Unit 12 & 13, Westend Mall, Aundh, Pune",73.8072356209,18.5619402265,https://www.zomato.com/pune/biryani-house-1-aundh,₹200 for one order (approx.)
19507844,Biryani Bazaar,Biryani,3.2,4,3.2,4,3,18,,,,"76/3, Sunny Complex, Jagtap Chowk, Wanowrie, Pune",73.9000755,18.4922026,https://www.zomato.com/pune/biryani-bazaar-wanowrie,₹500 for two people (approx.)
19696680,The Japanese Bowl Box,Japanese,0,0,,0,,0,10am – 11pm (Today),,,"Shop 103, Palace Orchard, Nibm, Undri, Pune",73.903944,18.463389,https://www.zomato.com/pune/the-japanese-bowl-box-undri,₹200 for one order (approx.)
19538276,Shawarma House,"Rolls, Fast Food",3.5,147,,3,3.5,147,11am – 11pm (Today),,,"Shop 3, Survey 34, Puneri Choupati, Opposite Moze Engineering College, Balewadi, Pune",73.76760263,18.5753367672,https://www.zomato.com/pune/shawarma-house-balewadi,₹200 for two people (approx.)
19255990,Shreeji Ice Cream,Ice Cream,0,1,,1,,1,12:05pm – 11pm (Today),,,"Shop 1, Truspace Paloma, Porwal Road, Survey 282/3/1/3, Dhanori, Pune",73.9093436301,18.6014647947,https://www.zomato.com/pune/shreeji-ice-cream-dhanori,₹300 for two people (approx.)
19095201,S K Rolls And Chinese,"North Indian, Chinese, Rolls, Biryani, Beverages",2.3,11,2.3,11,3.9,601,11am – 11pm (Today),,,"Shop 5-6, Plot 89, Dwarka Building, Near Pimpri Old RTO Office, Purna Nagar, Chinchwad, Pune",73.8094259799,18.6590375418,https://www.zomato.com/pune/s-k-rolls-and-chinese-chinchwad,₹350 for two people (approx.)
19779839,Fusion Of Tastes,"Pizza, Burger",0,0,,0,,0,11am – 11pm (Today),,,"B/1, Adishakti Society -2, Dhankawadi, Pune",73.8523232192,18.4617457787,https://www.zomato.com/pune/fusion-of-tastes-dhankawadi,₹150 for one order (approx.)
18813130,Flute,"Chinese, Continental, North Indian, Italian, Fast Food, Desserts, Beverages",4.1,316,4.1,316,3.6,142,11am – 12midnight (Today),"Good Food with Good Quantity, Candle Light Dinner, Ambience is very Nice, Fusion Dishes, Service and Quality of Food, Comfortable Seating Area","Chicken Lapeta, Burnt Garlic Rice, Cocktails, Drinks, Starters","Survey 174/1, Postal Colony, Opposite Omega Soham Icon, Wakad, Pune",73.7635441124,18.6010123019,https://www.zomato.com/pune/flute-wakad,₹700 for two people (approx.) Without alcohol
19131040,Kekiz The Cake Shop,Bakery,4.1,248,,0,4.1,248,8am – 12:30am (Today),,,"Shop 7, B Wing, Jambulkar Complex, Phase 1, Hinjawadi, Pune",73.7378686666,18.5921331581,https://www.zomato.com/pune/kekiz-the-cake-shop-hinjawadi,₹350 for one order (approx.)
19569588,The Irani Cafe,"Fast Food, Street Food, Desserts, Beverages, Bakery",4,4741,,0,4,4741,7am – 12midnight (Today),,,"Shop 26, Survey 25, Hissa 3/5/6/7, Ground Floor, Royal Heritage Mall, Mohamadwadi, NIBM Road, Pune",73.9058618839,18.4671307361,https://www.zomato.com/pune/the-irani-cafe-nibm-road,₹100 for one order (approx.)
19824187,ZAZA 22 Spice Biryani,Biryani,4.1,263,,0,4.1,263,11am – 1am (Today),,,"Shop A11, Ssre Tower, Kharadi, Pune",73.943445906,18.5490102053,https://www.zomato.com/pune/zaza-22-spice-biryani-kharadi,₹200 for one order (approx.)
19793856,Cafe Durga,"North Indian, South Indian, Chinese, Sandwich, Beverages, Shake",0,12,,2,,12,10am – 11pm (Today),,,"Mathvad Prangan, Shivtirth Nagar, Mathvad Chouk, Kothrud, Pune",73.8083715364,18.5123927206,https://www.zomato.com/pune/cafe-durga-14-kothrud,₹400 for two people (approx.)
6506395,Venky's Xprs,"Fast Food, North Indian, Burger",3.2,71,3.2,71,4.3,855,11am – 11pm (Today),,,"Shop 4, Building A2, Atharo Residency, Baner, Pune",73.7945450842,18.5564129848,https://www.zomato.com/pune/venkys-xprs-baner,₹400 for two people (approx.)
19849770,Naanis Litti Chokha,Fast Food,4,22,,0,4,22,10:30am – 10:30pm (Today),,,"Shop 4, Survey 132/1/19, Sai Garden, Baner Link Road, Pashan, Pune",73.7916741148,18.5516684408,https://www.zomato.com/pune/naanis-litti-chokha-pashan,₹100 for one order (approx.)
18802556,Cafe Durga,"South Indian, Maharashtrian, Beverages, Sandwich, Burger",2.8,21,2.8,21,3.5,936,8:30am – 10:30pm (Today),,,"Shop 1, Survey 66/6, Plot 13, Kalamkar Basti, Ganraj Karayalay Road, Baner, Pune",73.7767891958,18.5611758314,https://www.zomato.com/pune/cafe-durga-2-baner,₹300 for two people (approx.)
19871666,Chinese Hot Corner,Chinese,0,9,,1,,9,11am – 11pm (Today),,,"Hinjawadi Road, Ward 53, Hinjawadi, Pune",73.7411490083,18.5909097053,https://www.zomato.com/pune/chinese-hot-corner-hinjawadi,₹400 for two people (approx.)
19575172,Bedi's Naan & Paratha House,North Indian,3.4,24,3.4,24,3.8,549,"11am – 4pm, 7pm – 12midnight (Today)","Best Staff, Nice Concept, Delicious Taste, Young Crowd, Great Portions, Fresh Food",,"Shop 36/2/73, Near Rahul Arcus Banglore Highway, Maruti Nanaware Chowk, Baner, Pune",73.7707190216,18.5517059476,https://www.zomato.com/pune/bedis-naan-paratha-house-baner,₹250 for two people (approx.)
19241647,Miya Murg,"Biryani, North Indian, Mughlai, Kebab, Chinese",3.8,14,,0,3.8,14,11am – 11:01pm (Today),,,"Shop 9/10, Laxmi Properties, Dutta Mandir Road, Near Capital Tower, Wakad, Pune",73.7653328106,18.6079190416,https://www.zomato.com/pune/miya-murg-wakad,₹250 for one order (approx.)
20078301,Food Funda,"Maharashtrian, Fast Food, Street Food, North Indian, South Indian, Beverages",0,6,,,,,8am – 11pm (Today),,,"Shop 1, Shriniwas Appartment, Shridhar Colony, Cummins College Road, Karve Nagar, Pune",73.819442749,18.4872112274,https://www.zomato.com/pune/food-funda-karve-nagar,₹100 for two people (approx.)
19636795,Ruhe Organic Cafe,"Cafe, Continental, Fast Food, Beverages",3.4,13,3.4,13,3.6,25,7:30am – 10:30pm (Today),"Comforting Atmosphere, Cafe, Fresh Food, Ambiance, Good Quality",,"Shop 5, Ground Floor 10, North Building, Opposite Gaurishankar Kalyani Bunglow, Kalyani Nagar Pune",73.9004735649,18.5470817429,https://www.zomato.com/pune/ruhe-organic-cafe-kalyani-nagar,₹700 for two people (approx.)
19907558,Divine Biryani House,Biryani,0,1,,0,,1,11am – 11pm (Today),,,"Aditya PG, New DP Road, Vishal Nagar, Pimple Nilakh, Pune",73.7833448499,18.586046632,https://www.zomato.com/pune/divine-biryani-house-1-pimple-nilakh,₹200 for one order (approx.)
19432203,The Waffle Jar,Desserts,3.8,191,,0,3.8,191,,,,"Shop 5, SN-11, Opel Acorn, Near Kool Home, Kondhwa, Pune",73.8938042521,18.4716369083,https://www.zomato.com/pune/the-waffle-jar-kondhwa,₹250 for one order (approx.)
19831821,Mickey's Burger,Burger,0,2,,0,,2,11am – 11pm (Today),,,"Indrayani Nagar Bhosari, Pune",73.8453467935,18.6413483879,https://www.zomato.com/pune/mickeys-burger-bhosari,₹150 for one order (approx.)
19884021,Shivalini Chinese,Chinese,0,4,,1,,4,1pm – 9:30pm (Today),,,"721/1B, Vikas Nagar, Shastri Road, Navi Peth, Sadashiv Peth, Pune",73.8445840403,18.5058852616,https://www.zomato.com/pune/shivalini-chinese-sadashiv-peth,₹200 for two people (approx.)
19917145,Egg Planet,"Street Food, Rolls",0,1,,0,,1,11:30am – 11pm (Today),,,"Shop-6, Survey 6, Kokane Chawk, Near Lalbagcha Raja Ganpati Temple, Pimple Saudagar, Pune",73.7898753583,18.5972772836,https://www.zomato.com/pune/egg-planet-pimple-saudagar,₹100 for one order (approx.)
19807877,WS Bakers,Bakery,0,4,,2,,4,10am – 12midnight (Today),,,"133, Nana Peth, Kasba Vishrambag, Near Ashok Chowk, Rasta Peth, Pune",73.8671816513,18.5141295484,https://www.zomato.com/pune/ws-bakers-4-rasta-peth,₹300 for two people (approx.)
6507938,Mankar Dosa Centre,"South Indian, Street Food, Fast Food, Shake",3.4,28,3.4,28,4.2,462,4pm – 10:30pm (Today),,,"Near Alankar Police Chowky, Bharat Kunj Society, Karve Nagar, Pune",73.826757744,18.4989454587,https://www.zomato.com/pune/mankar-dosa-centre-karve-nagar,₹250 for two people (approx.)
19637187,PK Burger & Kabab Point,"Burger, Fast Food, Kebab",4.1,1,4.1,1,4,149,11am – 11pm (Today),,,"Survey 151/22, Pathan Wasti, Magarpatta Road, Hadapsar, Pune",73.9250278473,18.5056776471,https://www.zomato.com/pune/pk-burger-kabab-point-hadapsar,₹300 for two people (approx.)
19034015,Yewale Amruttulya,Tea,3.3,2,3.3,2,4,109,6:30am – 10pm (Today),,,"Shop 1, Lily Building, New Garden, Opposite Marvel Edge, Viman Nagar, Pune",73.9136810973,18.5620057005,https://www.zomato.com/pune/yewale-amruttulya-1-viman-nagar,₹50 for two people (approx.)
20104732,Chinese Viper,Chinese,0,4,,,,,"12:02am – 4:35am, 12:02pm – 12midnight (Today)",,,"25/2/2, Wireless Colony, New DP Road, Vishal Nagar, Pimple Nilakh, Pune",73.7804728,18.5858369,https://www.zomato.com/pune/chinese-viper-pimple-nilakh,₹150 for one order (approx.)
20098034,Le Spicy Land,"Chinese, Mughlai",0,0,,,,,11:30am – 11:02pm (Today),,,"Survey 241/1, Dattakrupa Apartment, Katraj, Pune",73.8590006747,18.4460036912,https://www.zomato.com/pune/le-spicy-land-katraj,₹150 for one order (approx.)
19834981,Mealful Rolls - Meals In A Roll,Rolls,3.8,12,,0,3.8,12,11am – 11pm (Today),,,"PT Gera, First Floor, Opposite Axis Bank, Unit 14, Bund Garden Road, Pune",73.878873,18.534592,https://www.zomato.com/pune/mealful-rolls-meals-in-a-roll-bund-garden,₹200 for one order (approx.)
19656743,La Magia,Italian,3.6,18,3.6,18,3.7,13,8am – 10pm (Today),"Great Place for Family, Excellent Location, Best in Service, Healthy and Delicious, Fresh Food with Good Quality",,"Lane 1, Near Sunderban Resorts, Koregaon Park, Pune",73.8888904452,18.5374158987,https://www.zomato.com/pune/la-magia-koregaon-park,"₹1,500 for two people (approx.) Without alcohol"
18591707,Faasos,"Fast Food, North Indian, Wraps, Shake, Desserts",4.1,4570,,0,4.1,4570,7am – 11pm (Today),"Portion Size, Good Quantity, Proper Packaging, Timely Service, Worth the Money, Great Portions","Potato Chilli, Chicken Wrap, Rice Bowl, Wraps, Biryani, Sauce","Survey 12, Milkat 47/3/165, Narsingh HSG Society, Shitole Nagar, Old Sangavi, Pimple Gurav, Pune",73.8178266585,18.5737848933,https://www.zomato.com/pune/faasos-pimple-gurav,₹200 for one order (approx.)
13280,Garden Vada Pav Centre,Street Food,3.5,4,3.5,4,4.3,10.8K,9am – 9pm (Today),"Quaint Little Place, Affordable, Street Food, Amazing Taste, Best Places, Best Service","Butter Vadapav, Crispy Vada Pav, Vada Paavs, Aloo Vada, Vadapao, Masala Tak","948, 949, Buttee Street, Camp Cantonment, Camp Area, Pune",73.8757117465,18.5168534999,https://www.zomato.com/pune/garden-vada-pav-centre-camp-area,₹150 for two people (approx.)
18617389,Desi Handi,"North Indian, Chinese, Biryani, South Indian",3.5,970,,0,3.5,970,"12noon – 3:30pm, 7pm – 1am (Today)","Unlimited Refills, Fast Delivery, Hygienic Food, Contactless Delivery, Spill Proof Packaging, Mouth Watering Food","Masala Paneer, Paneer Chilli, Chicken Manchurian, Veg Fried Rice, Chicken Masala, Chole Bhature","Kasturi Chowk, Hinjewadi Phase I, Hinjawadi, Pune",73.7449510396,18.5995124575,https://www.zomato.com/pune/desi-handi-hinjawadi,₹250 for one order (approx.)
19760762,Food Crave,Continental,0,9,,0,,9,10am – 11:30pm (Today),,,"Shinde Vasti, Opposite Gaikwad Hospital, Keshavnagar, Mundhwa, Pune",73.9408985,18.5309426,https://www.zomato.com/pune/food-crave-mundhwa,₹300 for one order (approx.)
18748115,Uncle's Chinese,"Chinese, Asian, Momos, Beverages",4,171,4,171,4,4849,"11:30am – 3:30pm, 6:30pm – 11pm (Today)","Chinese, Worth the Money, Spicy, Good Food, Price, Staff",,"Sanjay Park, Mohammad Ali Chowk, Viman Nagar, Pune",73.9053112641,18.5703690048,https://www.zomato.com/pune/uncles-chinese-viman-nagar,₹800 for two people (approx.)
20085912,Misal Darbar,"Maharashtrian, Street Food",4,2,,0,4,2,8am – 10pm (Today),,,"Shop 16, Survey 58/2/1A, 58/2B And 58/2/A, Trade Park-1, Undri, Pune",73.9132886,18.4493831,https://www.zomato.com/pune/misal-darbar-undri,₹300 for two people (approx.)
6504429,Hot Momo's And Burger,"Momos, Chinese, Burger, Fast Food",4.3,696,4.3,696,3.9,35.9K,12noon – 11pm (Today),"Economical, Casual Seating Area, Low Price, Great Recommendations, Good Crowd, Tamper Proof Packaging","Chicken Fried Momos, Veg Momo, Lemon Tea, Noodle, Iced Tea, Chicken Burger","Shivaji Society, Near Bitwise Company, Bahirat Wadi, Senapati Bapat Road, Pune",73.8289665431,18.5348159323,https://www.zomato.com/pune/hot-momos-and-burger-senapati-bapat-road,₹250 for two people (approx.)
19953297,Al Baik,"Continental, Fast Food, Burger",3.8,119,,0,3.8,119,11:30am – 11:30pm (Today),,,"Shop 3, Prime Avenue, Kausar Baugh, Kondhwa, Pune",73.8933563232,18.4715141591,https://www.zomato.com/pune/al-baik-1-kondhwa,₹350 for two people (approx.)
19474430,Cady Chinese,"Chinese, Momos, Seafood, Fast Food, Asian",3,16,,0,3,16,11am – 11pm (Today),"Cute Packaging, Extensive Menu, Food Presentation, Worth the Money, Great Portions, Timely Service",,"Near Cosmos Bank, Baner Road, Baner, Pune",73.7896037847,18.5599032092,https://www.zomato.com/pune/cady-chinese-baner,₹250 for one order (approx.)
11052,SWS Veg Pizzaria,"Sandwich, Pizza, Fast Food, Beverages",3,72,3,72,3.8,334,12:15pm – 9:30pm (Today),"Customizations Available, Large Servings, Reasonable Prices, Sitting Arrangement, Cleanliness, Prompt Service",,"Bhagali Hospital Road, Soba Savera Complex, Ramyanagari, Bibvewadi, Pune",73.8616026565,18.4751918259,https://www.zomato.com/pune/sws-veg-pizzaria-bibvewadi,₹400 for two people (approx.)
13736,Hotel Yatrik Yashraj Restaurant,"South Indian, North Indian, Chinese, Fast Food, Biryani, Desserts, Beverages, Shake",2.9,44,2.9,44,3.8,2291,10am – 11:30pm (Today),,,"Moti Chowk, Raviwar Peth, Budhwar Peth, Pune",73.8594900817,18.5174356085,https://www.zomato.com/pune/hotel-yatrik-yashraj-restaurant-budhwar-peth,₹400 for two people (approx.)
19234050,WOW! Momo,"Momos, Fast Food, Tibetan",2.9,44,2.9,44,4.1,1032,11am – 11pm (Today),"Wonderful Presentation, Management, Customizable Food, Elaborate Menu, Portion, Young Crowd",,"Shop 10, Ground Floor, Vrindavan Apartment, N M Road, Koregaon Park, Pune",73.8987901434,18.5388037604,https://www.zomato.com/pune/wow-momo-koregaon-park,₹400 for two people (approx.)
19562296,Lama Momos,Momos,3.4,22,3.4,22,4,233,11am – 11pm (Today),"Served Quickly, Delicious Taste, Mouth Watering Food, Spill Proof Packaging, Great Portions, Timely Service",,"Shop 25, Ground Floor, Survey 3, Nyati Estate, Mohammad Wadi, NIBM Road, Pune",73.921444,18.465833,https://www.zomato.com/pune/lama-momos-1-nibm-road,₹250 for two people (approx.)
6505655,Delhi Chaap Express,"North Indian, Rolls, Sandwich, Pizza, Fast Food",3.8,139,3.8,139,3.9,2342,11am – 11pm (Today),,"Chaap Masala, Tandoori Soya Chaap, Momos, Rolls","Near Ganpati Mandir, Ganpati Chowk, Viman Nagar, Pune",73.9181204885,18.567583613,https://www.zomato.com/pune/delhi-chaap-express-1-viman-nagar,₹300 for two people (approx.)
19518091,La Mia Pizzeria,Pizza,3.1,44,,0,3.1,44,6:30pm – 11pm (Today),"Amazing Food at Amazing Price, Delicious Taste, Proper Packaging, Worth the Money, Extensive Menu, Great Portions",,"A4, Profile Enclave, 10 Aundh Road, Khadki, Pune",73.833784461,18.5625428407,https://www.zomato.com/pune/la-mia-pizzeria-1-khadki,₹200 for one order (approx.)
6506935,Pizza Hut,"Pizza, Fast Food, Desserts, Beverages",3.1,457,3.1,457,3.6,3616,11am – 1am (Today),"Order Online, Nice Music, Great Value, Nice Service, Parking, Environment",,"Shop 1, Survay 241/1, CST 313, Village Wakad, Taluka Mulshi, Hinjawadi, Pune",73.7635736167,18.5946861738,https://www.zomato.com/pune/pizza-hut-4-hinjawadi,₹600 for two people (approx.)
10184,Invitation 365,"Chinese, North Indian, Malwani, Mughlai, Seafood, Desserts, Beverages",3,66,3,66,4,67,11am – 12midnight (Today),,,"D1/D2 Plot 65, SS Plaza, Baker Cummins, Viman Nagar, Pune",73.918148987,18.5648906641,https://www.zomato.com/pune/invitation-365-viman-nagar,₹800 for two people (approx.) Without alcohol
13379,Ganesh Bhel,"Street Food, Sandwich",3.9,173,3.9,173,4.4,2573,11am – 10pm (Today),"Hygiene, Value for Money, Prices, Good Place, Quality, Staff",,"14, Ganga Vishnu Heights, Near Bombay Jwellers Circle, Karve Nagar, Pune",73.8255349919,18.4941939145,https://www.zomato.com/pune/ganesh-bhel-karve-nagar,₹200 for two people (approx.)
19922180,Chai Naashta Junction,"South Indian, Fast Food, Beverages",0,6,,0,,6,7am – 10pm (Today),,,"Shop 09, Survey 158/1/1, Kumar Prerna, Opposite Medipoint Hospital, Aundh, Pune",73.8023288548,18.5651512841,https://www.zomato.com/pune/chai-naashta-junction-aundh,₹350 for two people (approx.)
19329629,Mealful Rolls - Meals In A Roll,Rolls,3.7,90,,0,3.7,90,11am – 1am (Today),,,"Shop 3, Palash Plus Center Mall, Near Euro School, Wakad, Pune",73.7701906264,18.6002312405,https://www.zomato.com/pune/mealful-rolls-meals-in-a-roll-wakad,₹200 for one order (approx.)
19264573,Bowlsome,"North Indian, Desserts",3.9,1041,,0,3.9,1041,10am – 1am (Today),"Spill Proof Packaging, Portion Size, Great Portions, Extensive Menu, Good Quality, Price",,"Plot 2, Survey 94, Bhusari Colony, Karve Road, Kothrud, Pune",73.7954449654,18.5082853689,https://www.zomato.com/pune/bowlsome-kothrud,₹150 for one order (approx.)
18737883,Jyoti Bhel,"Street Food, Pizza",3.2,24,3.2,24,3.9,688,12:05pm – 10pm (Today),,,"Shop 3, Sadesatra Nali Road, Hadapsar, Pune",73.9410047606,18.5102991567,https://www.zomato.com/pune/jyoti-bhel-hadapsar,₹400 for two people (approx.)
19213006,Burger 09,"Burger, Fast Food, Beverages",3.5,218,,0,3.5,218,7am – 5am (Today),,,"Survey 55/58, Navjeevan Chowk, Lane 1, Sainath Nagar, Wadgaon Sheri, Pune",73.9304083586,18.5415260473,https://www.zomato.com/pune/burger-09-wadgaon-sheri,₹150 for one order (approx.)
19419024,Aadhijevan,North Indian,3.8,2868,,0,3.8,2868,10am – 11pm (Today),"Low Price, Spill Proof Packaging, Food Quality, Quantity",,"106, House 2/1, Daffodils, Near Leela Residency, Balewadi",73.7702962384,18.5769089666,https://www.zomato.com/pune/aadhijevan-balewadi,₹100 for one order (approx.)
19864329,WS Bakers,Bakery,0,1,,0,,1,10am – 10pm (Today),,,"89/1, Shop 1, Vidya Valley School Road, Mulshi, Sus, Pune",73.7526295334,18.5510975737,https://www.zomato.com/pune/ws-bakers-1-sus,₹100 for one order (approx.)
6507116,Suras Dining Hall,Maharashtrian,3.6,34,3.6,34,4.3,84,Opens tomorrow at 12noon,,,"Plot 493, Patil Plaza, Sahakar Nagar, Parvati, Pune",73.8546329364,18.4983616974,https://www.zomato.com/pune/suras-dining-hall-parvati,₹500 for two people (approx.)
20098868,Vadilal Ice Cream,"Ice Cream, Desserts",3.8,0,,0,3.8,0,"12midnight – 4am, 7am – 12midnight (Today)",,,"Shop 1, Plot 606-G, Bhamburda Shivaji Nagar, Nagar Road & Sangamwadi, JM Road, Pune",73.852636007,18.5259519336,https://www.zomato.com/pune/vadilal-ice-cream-jm-road,₹100 for one order (approx.)
19308870,Ruro's Cake N Cafe,Bakery,4,1232,,0,4,1232,10:05am – 11:58pm (Today),"Cashless Payments, Proper Packaging, Contactless Delivery, Timely Service, Great Portions, Flavour",,"Opposite SP Infocity IBM, Hadapsar, Pune",73.9510087296,18.4886444502,https://www.zomato.com/pune/ruros-cake-n-cafe-hadapsar,₹300 for one order (approx.)
18425302,Cafe Bon Appetit,"Cafe, Fast Food, Shake",3,75,3,75,3.6,707,9:30am – 11:30pm (Today),"Cafe, Ambiance, Quality, Staff, Food",,"Shop 3, 92/100, Shankar Chhaya CHS, Erandwane, Pune",73.8339745626,18.5048640373,https://www.zomato.com/pune/cafe-bon-appetit-erandwane,₹400 for two people (approx.)
11372,Malaka Spice,"Thai, Japanese, Asian",4.4,984,4.4,984,4.1,2333,,"Cool Ambience, Appetizers, Cozy, Server, Lights, Waiter","Roti Kanai, Kari Kapitan, Phad Thai Noodles, Tempura, Thai Red Curry, Buffet","F 72, First Floor, Phoenix Market City, Nagar Road, Opposite Chroma Store, Viman Nagar, Pune",73.9163827524,18.5622990619,https://www.zomato.com/pune/malaka-spice-viman-nagar,"₹1,500 for two people (approx.) Without alcohol"
19975390,Anu's Handi Kitchen,Mughlai,0,1,,0,,1,11am – 10pm (Today),,,"Mantra Insignia, Keshav Nagar, Mundhwa, Pune",73.9493916,18.5377218,https://www.zomato.com/pune/anus-handi-kitchen-mundhwa,₹150 for one order (approx.)
19752072,Zesty Tasty,Bakery,0,0,,0,,0,12noon – 11pm (Today),,,"House 11, Plot 37, Shri Shrinivas Society, Near Kom TV, Ram Nagar Road, Bavdhan, Pune",73.7792862935,18.5261136482,https://www.zomato.com/pune/zesty-tasty-bavdhan,₹200 for one order (approx.)
19480537,Itminaan Biryani - Dum Pukht,"Biryani, North Indian, Mughlai",3.6,453,,0,3.6,453,11am – 1am (Today),,,"S. N. 135, Shop 15, Gandharva Galaxy Amanora, Magarpatta Road, Amanora Park Town, Hadapsar, Pune",73.9335515723,18.5231453186,https://www.zomato.com/pune/itminaan-biryani-dum-pukht-hadapsar,₹300 for one order (approx.)
19864291,Green Lounge & Bar,"North Indian, Chinese, Seafood",3.4,20,3.4,20,,4,11am – 11pm (Today),"Best in Service, Young Crowd, Good Quality, Ambience, Staff, Food",,"Survey 12/27, Someshwar Wadi, Near Shivshambhu Nursery, Aundh, Pune",73.8010562673,18.5469745589,https://www.zomato.com/pune/green-lounge-bar-aundh,"₹1,200 for two people (approx.) with alcohol"
19836200,Burger Craft,"Burger, Fast Food, Beverages",4.3,53,,2,4.3,53,12noon – 12midnight (Today),,,"Shop 2, Ground Floor, Pune Nagar Road, Viman Nagar, Pune",73.91647093,18.5680361945,https://www.zomato.com/pune/burger-craft-viman-nagar,₹700 for two people (approx.)
19650098,Thorat's Baarbeque Misal,"Maharashtrian, Beverages",3.6,14,3.6,14,3.8,46,7:30am – 10pm (Today),"Awesome Spot to Hangout, Humble Staff, Customizable Food, Good Quality, Taste",,"Ground Floor, Flat R H 3, Survey 199/204, Clover Corner, Lohgaon, Viman Nagar, Pune",73.9110518619,18.5654767408,https://www.zomato.com/pune/thorats-baarbeque-misal-viman-nagar,₹200 for two people (approx.)
19023263,Hyderabadi Royal Biryani,"Biryani, North Indian",3.9,154,3.9,154,3.8,4148,11am – 1am (Today),"Economical, Office Crowd, Pocket Friendly, Cozy Ambiance, Great Recommendations, Wonderful Presentation",,"Shop E 17, 14, Venus Garden Building, Kharadi, Pune",73.9365848154,18.5450121259,https://www.zomato.com/pune/hyderabadi-royal-biryani-kharadi,₹300 for two people (approx.)
19572745,Pav Bhaji Company,Fast Food,3.7,57,,0,3.7,57,7am – 4am (Today),"Great Portions, Extensive Menu, Timely Service, Worth the Money, Delicious Food, Price",,"Shop 01, Plot 2/5, Ward 20, Sector 29, Iskcon Temple Road, Near Dharmaraj Chowk, Ravet, Pune",73.7613011152,18.6500909054,https://www.zomato.com/pune/pav-bhaji-company-ravet,₹100 for one order (approx.)
19777299,Mithai Junction,Mithai,3.3,121,,0,3.3,121,7:35am – 11:30pm (Today),,,"207/2/1, B.D, Kaspate Wasti, Wakad, Pune",73.774199523,18.5981546421,https://www.zomato.com/pune/mithai-junction-wakad,₹100 for one order (approx.)
19579064,Food Costa,"Pizza, Coffee, Fast Food",3.3,16,,1,3.3,16,10am – 10pm (Today),,,"Shop 2, Karan Ashiyana, Wadgaon Sheri, Pune",73.920507,18.555106,https://www.zomato.com/pune/food-costa-wadgaon-sheri,₹150 for two people (approx.)
19625049,Purohit Misal House,"South Indian, North Indian, Fast Food, Street Food, Beverages",3.3,110,,0,3.3,110,24 Hours (Today),,,"Survey 23/24, Gosavi Wasti, Vandevi Mandir, Karve Nagar, Pune",73.8153298572,18.4928368513,https://www.zomato.com/pune/purohit-misal-house-karve-nagar,₹100 for one order (approx.)
20086173,Hotel Taste And Flavour,"Chinese, North Indian",0,23,,,,,"11am – 3:30pm, 6pm – 11pm (Today)",,,"Survey 174/3/1, Near Postal Colony, Ward 60, Wakad, Pune",73.76416035,18.6016316193,https://www.zomato.com/pune/hotel-taste-and-flavour-wakad,₹400 for two people (approx.)
19676832,"Agasti Dosa, Rolls, Snacks And More","South Indian, Rolls, Street Food",0,21,,3,,21,12noon – 11pm (Today),,,"Shop 14-15, Lonkar Vasti, Keshav Nagar, Manjari Road, Mundhwa, Pune",73.9550651918,18.5263294818,https://www.zomato.com/pune/agasti-dosa-rolls-snacks-and-more-1-mundhwa,₹200 for two people (approx.)
19280966,Sufiz Bake House,Bakery,3.9,257,,0,3.9,257,10am – 11:30pm (Today),,,"Shop 2, Samruddhi Building, Parge Nagar, Kondhwa, Pune",73.8913121447,18.468219615,https://www.zomato.com/pune/sufiz-bake-house-kondhwa,₹300 for one order (approx.)
19639212,Sudam A1 Sandwich,Sandwich,4,45,,0,4,45,2pm – 10pm (Today),,,"Near Sonya Maruti Chowk, Ravivar Peth, Budhwar Peth, Pune",73.8593636826,18.5157471382,https://www.zomato.com/pune/sudam-a1-sandwich-1-budhwar-peth,₹100 for one order (approx.)
19111020,Vyankis Eating Co.,"Biryani, North Indian, Maharashtrian",3.8,542,,0,3.8,542,12noon – 12midnight (Today),"Customizable Dishes, Variety of Pizza, Weekend Brunch, Tamper Proof Packaging, Nice Taste, Good Wifi",,"2nd Floor, R K Apartment, Opposite Narhe Police Chowki, Narhe, Pune",73.824528493,18.4567864839,https://www.zomato.com/pune/vyankis-eating-co-narhe,₹150 for one order (approx.)
19415597,Pizzasta,"Pizza, Beverages, Fast Food",3.5,455,,0,3.5,455,11am – 1am (Today),,,"Opposite Mayur Plaza, Shivraj Nagar, Rahatani, Pimple Saudagar, Pune",73.7819913402,18.6006268559,https://www.zomato.com/pune/pizzasta-pimple-saudagar,₹150 for one order (approx.)
19866524,Momo Monk,Momos,4,46,,0,4,46,11am – 11pm (Today),,,"Plot-1, 1st Floor Hall, Above Shlok Snacks Corner, Kharadkar Nagar, Wadgaon Sheri, Pune",73.9195285,18.54886,https://www.zomato.com/pune/momo-monk-wadgaon-sheri,₹150 for one order (approx.)
6503019,Rasika Pure Veg,"North Indian, South Indian, Chinese, Street Food, Ice Cream, Desserts, Beverages",3.9,207,3.9,207,4,3875,7am – 11pm (Today),"Comfort Food, Good Quantity, Good Taste, Good Food, Good Service, Quality",,"Shop 5, Siddhivinayak Aurum, Near Eden Garden, Viman Nagar, Pune",73.9137565345,18.5608131795,https://www.zomato.com/pune/rasika-pure-veg-viman-nagar,₹400 for two people (approx.)
19623596,The Verandah,"Maharashtrian, Fast Food, South Indian, Desserts, Beverages, Sandwich, North Indian, Street Food",3.6,35,3.6,35,4.2,297,7:30am – 10:30pm (Today),"Tasty Appetizers, Excellent Location, Fantastic Decoration, Sanitised Service, Filling Food, Great Menu",,"31/1, Mehendale Garage Compound, Erandwane, Pune",73.8318358362,18.5051686248,https://www.zomato.com/pune/the-verandah-erandwane,₹550 for two people (approx.)
11416,Kollage Food Court,"North Indian, Chinese, South Indian, Fast Food, Biryani, Maharashtrian, Beverages",3.9,406,3.9,406,4.1,2332,12noon – 10pm (Today),"Relaxed Atmosphere, Reasonable Rates, Good Quantity, Waiter, Awesome Food, Good Place","Chicken Dosa, Butter Chicken, Pasta, Coffee","Prabhat House, Damle Path, Law College Road, Pune",73.8283774629,18.5146658854,https://www.zomato.com/pune/kollage-food-court-law-college-road,₹500 for two people (approx.)
19680994,Sublime Bistro,"Pizza, Fast Food, Beverages, North Indian, Shake",3.6,7,3.6,7,,4,1pm – 11:30pm (Today),,,"UG 03 Raviraj CRU Mall, Main Gangadham Road, Bibvewadi, Pune",73.8765241206,18.4820823496,https://www.zomato.com/pune/sublime-bistro-bibvewadi,₹600 for two people (approx.)
6504278,The Cake & Cream Factory,Bakery,4.2,382,,0,4.2,382,10am – 11:30pm (Today),,,"Serial 1B, Hissa - 1732/1733/2010, Bramha Chemars, Sadashiv Peth Tilak Road, Pune",73.851980567,18.5067128557,https://www.zomato.com/pune/the-cake-cream-factory-tilak-road,₹100 for one order (approx.)
19925850,7 Brio Chinese,"Chinese, Shake",0,3,,0,,3,11am – 11pm (Today),,,"Plot 2 & 3, A-7, A-8, A-9, Ellora Shopee Complex, Sector 1, Bhosari, Pune",73.8457166031,18.6374633508,https://www.zomato.com/pune/7-brio-chinese-bhosari,₹200 for one order (approx.)
19910447,Hotel Rajmudra,"Maharashtrian, Biryani",0,8,,0,,8,12noon – 11pm (Today),,,"Shop -1, Vishnu Priya, Survey - 21/14, Mahadev Nagar Teen Batti Chowk, Dhankawadi, Pune",73.8434303552,18.4627303697,https://www.zomato.com/pune/hotel-rajmudra-dhankawadi,₹150 for one order (approx.)
18808129,Hotel Al Zaika,"North Indian, Chinese, Biryani, Mughlai, Maharashtrian, Rolls",3.6,125,3.6,125,3.9,6164,11am – 12midnight (Today),"Jain Food Options, Great Buffet Spread, Good Quality Good Service, Extensive Bar Menu, Fusion Dishes, Gastronomical Experience",,"Opposite NSG Crown Building, NSG Chowk, Narhe, Pune",73.8257934898,18.4610289573,https://www.zomato.com/pune/hotel-al-zaika-narhe,₹350 for two people (approx.)
19007352,Hotel Dhangarwada,"Maharashtrian, North Indian, Chinese, Biryani",3.2,7,3.2,7,3.2,109,11am – 11pm (Today),,,"Shop 11, Survey 177/33, Sankalp Market, Bhekrainagar, Phursungi, Pune",73.954724595,18.4813513039,https://www.zomato.com/pune/hotel-dhangarwada-phursungi,₹500 for two people (approx.)
19797147,Ashapuri Dining Hall,"Rajasthani, North Indian, Chinese",3.8,0,3.8,0,3.6,112,"12noon – 4pm, 7pm – 11pm (Today)",,,"Near Meetcon College, Shejari Balewadi Road, Balewadi, Pune",73.7666253001,18.5753761757,https://www.zomato.com/pune/ashapuri-dining-hall-balewadi,₹450 for two people (approx.)
19436114,Biryani Darbar,"Biryani, North Indian",3.4,103,,0,3.4,103,11am – 11pm (Today),"Healthy and Delicious, Fresh Food with Good Quality, Best Food under Best Budget, Proper Packaging, Great Portions, Timely Service",,"Near HP Petrol Pump, Hinjewadi - Wakad Road, Hinjawadi, Pune",73.7479437143,18.590670416,https://www.zomato.com/pune/biryani-darbar-hinjawadi,₹150 for one order (approx.)
19751946,Mithi Mithas,"Mithai, Desserts",4,83,,0,4,83,8am – 10pm (Today),,,"Survey 146/1, Wakad Road, Near PCMC Bus Stop, Hinjawadi, Pune",73.7396550179,18.5913066134,https://www.zomato.com/pune/mithi-mithas-hinjawadi,₹100 for one order (approx.)
19504064,Chole Kulche,"North Indian, Street Food, Beverages",3.3,9,3.3,9,3.8,114,9:30am – 11pm (Today),,,"Shop 5, Orange County, Block C, Phase 1, Baner-Pashan Link Road, Pashan, Pune",73.790383,18.543959,https://www.zomato.com/pune/chole-kulche-pashan,₹300 for two people (approx.)
11744,Hotel Kunal,"North Indian, Chinese, Mughlai, Fast Food, Biryani, Shake",3.8,198,3.8,198,4.4,4176,11am – 10pm (Today),"Tasty Food, Good Service, Good Food, Prices, Quantity, Packaging",,"Thopate Market, Kalewadi Main Road, Tapkir Nagar, Pimple Saudagar, Pune",73.7840804458,18.6108832994,https://www.zomato.com/pune/hotel-kunal-pimple-saudagar,₹700 for two people (approx.) Without alcohol
19738554,Caramella's Cake Shop,"Bakery, Desserts, Fast Food",4,40,,0,4,40,9am – 11pm (Today),,,"Shop 6, Wagheshwar Complex, Wagholi, Pune",73.9806048945,18.5809606424,https://www.zomato.com/pune/caramellas-cake-shop-2-wagholi,₹250 for one order (approx.)
6506745,Sparshika's Cake Vista,"Bakery, Cafe, Fast Food, Desserts, Beverages",2.8,38,2.8,38,3.7,554,8am – 12midnight (Today),,,"Shop 2, Near Sahyadri Hospital, Swami Vivekanand Road, Bibvewadi, Pune",73.8620656729,18.4781984547,https://www.zomato.com/pune/sparshikas-cake-vista-bibvewadi,₹300 for two people (approx.)
11255,Eighty Eight - Hyatt Pune,"Continental, North Indian, Italian, Healthy Food, Fast Food, Desserts, Shake",3.8,320,3.8,320,3.5,111,6:30am – 11pm (Today),"Intimate Setting, Sophisticated, Attentive Service, Chef, Hospitality, Decor","Dinner Buffet, Risotto, Salads, Deserts, Pasta, Prawns","88, Nagar Road, Yerwada, Kalyani Nagar, Pune",73.9051474,18.5533228,https://www.zomato.com/pune/eighty-eight-hyatt-pune-kalyani-nagar,"₹2,600 for two people (approx.) Without alcohol"
19629132,Ak Burger House,Fast Food,3.9,197,,0,3.9,197,11am – 11pm (Today),"Great Veg Options, Mouth Watering Food, Best Food under Best Budget, Affordable Prices, Worth the Money, Value for Money",,"Shop 1, Street 85/1, Kamthe Wasti, NDA Road, Shivane, Pune",73.7848854437,18.4675311236,https://www.zomato.com/pune/ak-burger-house-shivane,₹150 for one order (approx.)
19826505,The Momo Co.,"Chinese, Momos, Desserts",3.8,6,,0,3.8,6,11am – 1am (Today),,,"Shop 05, Ground Floor, Building 1, Xenia Apartments Association, Survey 58/2/1A and Survey 58/1, Kharadi, Pune",73.9448309317,18.5606186631,https://www.zomato.com/pune/the-momo-co-kharadi,₹200 for one order (approx.)
12917,Copper Chocs,"Bakery, Fast Food, Desserts",3.3,34,3.3,34,4.3,114,10am – 9pm (Today),,,"329, Sachapir Street, Opposite Cantonment Court, MG Road, Pune",73.8791962713,18.5136043371,https://www.zomato.com/pune/copper-chocs-mg-road,₹400 for two people (approx.)
19202346,Charbhuja Bhojnalay,"Gujarati, Maharashtrian, North Indian",0,44,,1,,44,"11am – 3:30pm, 7pm – 10pm (Today)",,,"Shivdarshan Complex, Near Dharmveer Sambhaji Bank, Vinayak Nagar, New Sanghavi, Pimple Gurav, Pune",73.8132829964,18.5826313069,https://www.zomato.com/pune/charbhuja-bhojnalay-pimple-gurav,₹200 for two people (approx.)
19913123,Apna Chaapwala,Kebab,0,1,,0,,1,5pm – 11pm (Today),,,"Opposite Zensar IT Park Kharadi, Chandan Nagar, Pune",73.941261,18.549768,https://www.zomato.com/pune/apna-chaapwala-chandan-nagar,₹150 for one order (approx.)
12473,Balaji Pav Bhaji,"Maharashtrian, South Indian, Street Food",3.3,17,3.3,17,,9,8am – 9pm (Today),,,"Chinranjive Apartment, Karve Road, Karve Nagar, Pune",73.8227139786,18.5049533788,https://www.zomato.com/pune/balaji-pav-bhaji-karve-nagar,₹200 for two people (approx.)
19837729,Ganga Pure Veg,Maharashtrian,0,11,,1,,11,"11am – 3:30pm, 7pm – 10:30pm (Today)",,,"58, Vadgaon Budruk, Pune Bangalore Highway, Haveli North of Mutha River, Sinhgad Road, Pune",73.8194084913,18.462669946,https://www.zomato.com/pune/ganga-pure-veg-sinhgad-road,₹250 for two people (approx.)
18715601,Sai Hotel and Restaurant,"Chinese, Maharashtrian, North Indian",3.3,9,3.3,9,,7,11am – 10:40pm (Today),,,"Prakash Colony, Akurdi, Pune",73.7797842175,18.6562777435,https://www.zomato.com/pune/sai-hotel-and-restaurant-akurdi,₹450 for two people (approx.)
19304846,Sam's Executive Meals,"North Indian, Mughlai, Biryani",0,5,,0,,5,11:30am – 10:30pm (Today),,,"Plot 93, Unit 317, 3rd Floor, Avenue Mall, Wanowrie, Pune",73.9066885784,18.5062795059,https://www.zomato.com/pune/sams-executive-meals-wanowrie,₹200 for one order (approx.)
19850107,Dragon Mart,Chinese,3.4,82,,0,3.4,82,,"Spill Proof Packaging, Cute Packaging, Food Presentation, Worth the Money, Great Portions, Extensive Menu",,"Survey 12/1, Pearl Inn, Brahma Suncity Road, Adarsh Nagar, Opposite Bishops School, Kalyani Nagar, Pune",73.911552,18.550499,https://www.zomato.com/pune/dragon-mart-kalyani-nagar,₹200 for one order (approx.)
19212699,Urban Dhaba,"Mughlai, Chinese, North Indian",0,9,,0,,9,"11:30am – 3:30pm, 6:30pm – 12midnight (Today)",,,"Shop 11, Wing C, Eastern Court Condominium, BT Kawade Road, Ghorpadi, Pune",73.906098,18.527306,https://www.zomato.com/pune/urban-dhaba-ghorpadi,₹250 for one order (approx.)
19716622,Kebab Bistro,"Chinese, North Indian, Kebab",0,11,,1,,11,11:30am – 11pm (Today),,,"GAT 169, Keshav Apartment, Triveni Nagar, Talawade, Pune",73.78693,18.6727,https://www.zomato.com/pune/kebab-bistro-talawade,₹500 for two people (approx.)
6506868,Hotel Suruchi,"North Indian, Chinese, Mughlai",2.9,50,2.9,50,3.8,304,"11am – 3:30pm, 7pm – 11pm (Today)",,,"A Square Plaza, Opposite Narmada Garden, M S Kate Chowk, New Sangvi, Pimple Gurav, Pune",73.8200569153,18.5802996179,https://www.zomato.com/pune/hotel-suruchi-pimple-gurav,₹600 for two people (approx.)
19827247,Star Biryani,Biryani,0,0,,0,,0,11am – 11pm (Today),,,"702, Rahul Nisrag Society, Warje, Pune",73.7932057223,18.4840701322,https://www.zomato.com/pune/star-biryani-warje,₹200 for one order (approx.)
19626600,Best Town Cafe,"South Indian, Sandwich",3.3,12,3.3,12,3.6,188,8:30am – 8:30pm (Today),"Clean and Hygienic Place, Healthy and Delicious, Contactless Delivery, Affordable Prices, Tamper Proof Packaging, Perfect Presentation",,"Shop 2 - 3, Ground Floor, Street 139, Magarpatta Road, Near Amanora Bus Stop, Magarpatta, Pune",73.9326037467,18.518451989,https://www.zomato.com/pune/best-town-cafe-magarpatta,₹200 for two people (approx.)
6507885,Nation 330,"North Indian, Chinese, Fast Food",3.8,63,3.8,63,,5,11am – 11pm (Today),"Ambience, Staff, Service, Food",,"Shop 3, Aditya Shagun Mall, Bavdhan, Pune",73.7786439434,18.519154264,https://www.zomato.com/pune/nation-330-bavdhan,"₹2,000 for two people (approx.) with alcohol"
12571,Jijai Coffee House,"Fast Food, Chinese, Beverages, Shake",3.9,264,3.9,264,3.6,1811,8:30am – 1am (Today),"Beautiful View, Great View, Nice View, Cozy Ambiance, Inexpensive, Good Crowd","Blended Coffee, Cold Chocolate, Hot Coffee, Pav Bhaji, Sandwiches, Snacks","6, Mantri Lavendulla Apartment, Near Toll Naka, Bhugaon Road, Bavdhan, Pune",73.7723420933,18.5079966838,https://www.zomato.com/pune/jijai-coffee-house-bavdhan,₹350 for two people (approx.)
19847192,Jagdamb Veg - Non Veg Snacks Center,Street Food,0,0,,0,,0,Opens tomorrow at 5pm,,,"Sai Chowk, Navi Sangvi, Pimple Gurav, Pune",73.8159579955,18.5783452966,https://www.zomato.com/pune/jagdamb-veg-non-veg-snacks-center-pimple-gurav,₹100 for one order (approx.)
6503400,Ganesh Bhel,"Street Food, Fast Food, Sandwich",3.9,131,3.9,131,4.4,2307,10am – 10:30pm (Today),"Cleanliness, Good Taste, Value for Money, Packaging, Quality, Menu","Dabeli, Pani Puri, Chaat, Sandwiches","Shop 1, Ambe Shree Apartments, Ganeshnagar, Near Karnataka High School, Erandwane, Pune",73.8266789541,18.5001266472,https://www.zomato.com/pune/ganesh-bhel-erandwane,₹200 for two people (approx.)
19563528,Cafe Georgia,"Burger, Wraps, Beverages",0,11,,1,,11,,,,"Shop 4, Hinjewadi Wakad Road, Opposite Shell Petrol Pump, Hinjawadi, Pune",73.7135244686,18.6130859409,https://www.zomato.com/pune/cafe-georgia-3-hinjawadi,₹300 for two people (approx.)
19838209,Hindavi Swarajya Dining And Fast Food,"Maharashtrian, Malwani, North Indian",4,30,,0,4,30,12:30pm – 10pm (Today),,,"390, Surya Heights, Gaothan, JM Road, Pune",73.8507879898,18.5256415083,https://www.zomato.com/pune/hindavi-swarajya-dining-and-fast-food-jm-road,₹400 for two people (approx.)
6505647,Ashoka Resto Bar,"North Indian, Mughlai, Chinese, Seafood, Biryani",3.6,188,3.6,188,4.1,1063,,"Parking, Nice Food, Nice Service, Excellent Service, Good Quantity, Decent Place","Manchow Soup, Gulab Jamun, Starters, Biryani","Near Chonde Patil Lawns, New D P Road, Vishal Nagar, Pimple Nilakh, Pune",73.7803441286,18.5873254147,https://www.zomato.com/pune/ashoka-resto-bar-pimple-nilakh,₹900 for two people (approx.) Without alcohol
19321864,Bhavnagari Dry Fruit,"Mithai, Street Food",3.9,219,,0,3.9,219,9:45am – 8:45pm (Today),,,"Shop 19, Nancy Towers, 72 Part, Near Raheja Garden, Wanowrie, Pune",73.898759,18.487235,https://www.zomato.com/pune/bhavnagari-dry-fruit-wanowrie,₹100 for one order (approx.)
19065442,Raaga Imperio,"North Indian, Chinese, Continental, Seafood, Desserts",4.2,522,4.2,522,3.9,177,"12noon – 3:30pm, 7pm – 11pm (Today)","Servive is very Fast, Good Service and Good Food, Variety of Veg Options, Extensive Bar Menu, Great Buffet Spread, Play Area",,"169/1, Tathwade, Mulshi, Dange Chowk, Pune",73.7512176856,18.6324745267,https://www.zomato.com/pune/raaga-imperio-dange-chowk,"₹1,700 for two people (approx.) Without alcohol"
19518315,Rolling Joint,Momos,3,57,,0,3,57,"12midnight – 4am, 11:59am – 12midnight (Today)",,,"Survey 29, Hingne Home Colony, Near Ganraj Mitra Mandal, Karve Nagar, Pune",73.8146882,18.4883373,https://www.zomato.com/pune/rolling-joint-karve-nagar,₹100 for one order (approx.)
19690280,Cake Point Party Spot  By RJ Bakers,"Bakery, Fast Food, Desserts",0,6,,2,,6,24 Hours (Today),,,"Shop 67 & 68, Amrut Ganga Society, Goel Ganga, Vadgaon, Sinhgad Road, Pune",73.8232922,18.4703834,https://www.zomato.com/pune/cake-point-party-spot-by-rj-bakers-sinhgad-road,₹500 for two people (approx.)
19972652,The Grand Cafe,Fast Food,0,4,,0,,4,11am – 12midnight (Today),,,"Opposite Royal Palm, Shiv Road, Jadhav Wasti, Bhosari, Pune",73.8323015347,18.6753667004,https://www.zomato.com/pune/the-grand-cafe-bhosari,₹100 for one order (approx.)
19122112,Shanghai Chef Chinese,Chinese,3.6,1488,,0,3.6,1488,12noon – 4:30am (Today),"Packaging, Quantity, Good Quality, Fresh Food",,"Unit A/1/1, Wadgaonsheri Tempo Chowk, Lane Next To Anjali School, Wadgaon Sheri, Pune",73.9223533496,18.5510076206,https://www.zomato.com/pune/shanghai-chef-chinese-wadgaon-sheri,₹200 for one order (approx.)
19937256,Upwas Uphargruha,Fast Food,3.2,32,,0,3.2,32,7am – 4am (Today),,,"Flat A- 06, Radha Raman Complex, S 51/1, Ward 95, Pimple Gurav, Pune",73.815337,18.582061,https://www.zomato.com/pune/upwas-uphargruha-pimple-gurav,₹100 for one order (approx.)
18591288,Fish Curry Rice,"Maharashtrian, Goan, Malwani, Seafood",4.2,505,4.2,505,4,4091,"11:30am – 3:30pm, 7pm – 12midnight (Today)","Comfortable Seating Area, Relaxed Atmosphere, Good Quality Food, Authentic Taste, Preparation, Seating Arrangement","Kokum Kadi, Prawn Pulav, Curry Crab, Seafood Thali, Goan Prawn Curry, Surmai Curry","Near Orchid High School, Focus Building, Baner, Pune",73.7801412866,18.5643141202,https://www.zomato.com/pune/fish-curry-rice-baner,₹800 for two people (approx.)
19784024,Patalacha Wada,Maharashtrian,3,17,,0,3,17,11am – 11pm (Today),,,"Survey 81/2, Khandve Land, Wagholi Road, Dadachi Vasti, Lohegaon, Pune",73.9401534686,18.5938526562,https://www.zomato.com/pune/patalacha-wada-lohegaon,₹250 for one order (approx.)
10556,Subway,"Healthy Food, Sandwich, Salad, Fast Food, Wraps, Beverages",3.3,314,3.3,314,4,7475,9am – 12midnight (Today),"Pocket Friendly, Preparation, Location, Music, Staff, Ambiance","Quick Meal, Cookies, Paneer Tikka, Salad, Sandwiches","Survey 576/6, Shop 2, C L Apartments, FC Road, Pune",73.8410066441,18.5215732598,https://www.zomato.com/pune/subway-fc-road,₹500 for two people (approx.)
19018381,Cakes World,"Bakery, Desserts",4.2,301,,0,4.2,301,9:30am – 11:30pm (Today),,,"Shop 9, Kothari Apartments, Dhanori Road, Bharav Nagar, Lohegaon, Pune",73.8865984414,18.587077272,https://www.zomato.com/pune/cakes-world-lohegaon,₹300 for one order (approx.)
19355414,WOW! Momo,"Momos, Fast Food, Tibetan",3,30,3,30,4.1,2217,11am – 11pm (Today),"Quality of Food, Fair Prices, Clean and Hygienic Place, Perfect Presentation, Proper Packaging, Timely Service","Veg Momo, Chutney, Sauce, Chicken","Shop C-08, Ground Floor, Grime Heights, Wanawadi, Salunkhe Vihar Road, Pune",73.9019,18.4813,https://www.zomato.com/pune/wow-momo-salunkhe-vihar-road,₹400 for two people (approx.)
19777508,Sawant Hot Chips,Street Food,4,37,,0,4,37,9am – 10:30pm (Today),,,"Shop 10, Sakhai Plaza, Building A2, DP Road, Opposite Paranjape School, Kothrud, Pune",73.8095007,18.5022258,https://www.zomato.com/pune/sawant-hot-chips-kothrud,₹100 for one order (approx.)
19588780,Punjabi Dhaba,"North Indian, Biryani",0,4,,0,,4,11am – 10:30pm (Today),,,"Survey 169/1, Unit 12, 13 Westend Mall, Aundh, Pune",73.8071588427,18.5617202844,https://www.zomato.com/pune/punjabi-dhaba-aundh,₹200 for one order (approx.)
19563339,Tibetan Special Momos,Momos,0,15,,0,,15,11am – 11pm (Today),,,"A-405, Nancy Gardens, Salunkhe Vihar Road, Pune",73.900002,18.486532,https://www.zomato.com/pune/tibetan-special-momos-salunkhe-vihar-road,₹250 for two people (approx.)
19431946,Annapurna Tiffin,Maharashtrian,0,6,,0,,6,"11:15am – 4pm, 6pm – 10pm (Today)",,,"Shop 7, 1289, Chintamani Society, Near Kumar Bio Plant, Mundhwa, Pune",73.958633,18.525361,https://www.zomato.com/pune/annapurna-tiffin-mundhwa,₹100 for two people (approx.)
11043,Sheetal Restaurant,"North Indian, Mughlai, Chinese, South Indian, Desserts, Beverages, Shake",4.2,881,4.2,881,4.2,5901,7:30am – 11pm (Today),"Serving Size, Best Hotel, Quality of Food, Family Restaurant, Comfortable Seating Area, South Indian Food","Ganga Jamuna Juice, Cream of Tomato Soup, Paav Bhaji, Dahi Wada, Dal Fry, Butter Roti","147 & 16/17, Charudatta Apartment, Kothrud, Pune",73.8159159198,18.5022988681,https://www.zomato.com/pune/sheetal-restaurant-kothrud,"₹1,000 for two people (approx.)"
11123,Oasis,"North Indian, Chinese, Beverages",4,492,4,492,3.8,29,"11:30am – 3pm, 7pm – 11:30pm (Today)","Trained Staff, Candle Light Dinner, Serving Size, Good Value, Family Crowd, Courteous Staff","Mojito, Tandoori Chicken, Papad, Cocktails, Starters, Drinks","Survey 104/5/1, NDA Road, Chandani Chowk, Ward 30, Warje, Near Bavdhan, Pune",73.7875696644,18.4979047978,https://www.zomato.com/pune/oasis-bavdhan,"₹1,100 for two people (approx.) with alcohol"
11833,Vishal Restaurant,"Chinese, Kerala, Maharashtrian, North Indian, Rolls, Biryani, Beverages, Shake",3.5,46,3.5,46,3.9,1552,,,,"A/10, Panchratna Apartment, Near Bhairoba Nala, Hadapsar, Fatima Nagar, Pune",73.9008403569,18.5023134936,https://www.zomato.com/pune/vishal-restaurant-fatima-nagar,₹500 for two people (approx.)
20012794,Garrison Kitchen,"Chinese, Fast Food",4,31,,0,4,31,"12midnight – 3am, 3pm – 12midnight (Today)","Extensive Menu, Worth the Money, Timely Service, Great Portions, Delicious Food",,"S- 65/5, Wanwadi, Opposite Masjid Kedari Nagar, Salunkhe Vihar Road, Pune",73.8993524,18.4820919,https://www.zomato.com/pune/garrison-kitchen-salunkhe-vihar-road,₹250 for one order (approx.)
18658481,Tandoori Singh,"North Indian, Mughlai, Rolls",3.9,163,3.9,163,3.5,2108,12noon – 1am (Today),"Host, Amazing Taste, Owner, Service, Food","Juicy Tandoori Chicken, Chicken Tenders, Soya Chaap, Kebabs, Rolls, Butter Chicken","18A, Cycle Society, Quater Gate, Near YMCA Club, Rasta Peth, Pune",73.8724156469,18.5176438446,https://www.zomato.com/pune/tandoori-singh-rasta-peth,₹550 for two people (approx.)
19524930,Misal Bisal,Street Food,3.3,57,,0,3.3,57,7am – 11pm (Today),"Fresh Food with Good Quality, Best Food under Best Budget, Worth the Money, Timely Service",,"Survey 141/1/183/1, Jairam Nagar, BH Persistant Company, Hinjawadi, Pune",73.7386837229,18.5883340701,https://www.zomato.com/pune/misal-bisal-hinjawadi,₹150 for one order (approx.)
19703745,Chitale Xpress ,"Mithai, Desserts, Ice Cream",4.5,204,,0,4.5,204,9am – 9pm (Today),,,"Survey 11/8, Shankar Complex, Mundhwa - Kharadi Road, Kharadi, Pune",73.9367145672,18.5501697516,https://www.zomato.com/pune/chitale-xpress-kharadi,₹200 for two people (approx.)
20095132,Hotel Garwa Swad Gawakadcha Veg  And Non Veg,"Fast Food, North Indian, Beverages, Chinese, South Indian, Rolls",0,3,,,,,24 Hours (Today),,,"Survey 302, Sai Vihar Colony, Line 1, Kalepadal, Hadapsar, Pune",73.9417433739,18.4809250838,https://www.zomato.com/pune/hotel-garwa-swad-gawakadcha-veg-and-non-veg-hadapsar,₹150 for one order (approx.)
18552811,Punjab Canteen,"North Indian, Street Food, Beverages",4.4,814,4.4,814,4.1,19.9K,8am – 11pm (Today),"Themed Decor, Authentic Food, Relaxed Atmosphere, Pure Veg, Great Value, Excellent Food Quality","Muli Paratha, Chur Chur Naan Thali, Kala Jamun, Boondi Raita, Authentic Punjabi Food, Shahi Paneer","Survey 59/2, 60/2, Shop 1, Building E, Kumar Parisar, Near Gandhi Bhavan, Kothrud, Pune",73.8021558523,18.4963099323,https://www.zomato.com/pune/punjab-canteen-kothrud,₹850 for two people (approx.)
19834654,Upwas Uphargruha,Street Food,3.5,157,,0,3.5,157,7am – 4am (Today),"Fresh Food with Good Quality, Best Food under Best Budget, Price, Food, Packaging, Service",,"Shop 1, Plot 2/5, Iskon Temple Road, Near Dharmaraj Chowk, Sector 29, Nigdi, Pune",73.7614137679,18.6504314478,https://www.zomato.com/pune/upwas-uphargruha-nigdi,₹100 for one order (approx.)
19835865,Copper Chocs,"Bakery, Fast Food, Desserts",4.3,11,,0,4.3,11,10am – 9pm (Today),,,"Shop 1, Survey 1, Palm Breeze, Pimple Saudagar, Pune",73.8020928204,18.5935409124,https://www.zomato.com/pune/copper-chocs-1-pimple-saudagar,₹100 for one order (approx.)
19530651,Wellfood Home Taste,"Bakery, Desserts, Mithai",0,5,,0,,5,Opens tomorrow at 9am,,,"Flat 302, Shyamnath Residency, Yashwant Nagar, Bakori Road, Wagholi, Pune",74.0089870244,18.5879025164,https://www.zomato.com/pune/wellfood-home-taste-1-wagholi,₹350 for one order (approx.)
19787876,Ribbons & Balloons,"Bakery, Desserts",3.7,37,,0,3.7,37,7:51am – 11pm (Today),,,"Shop 1, Survey 48/1, Vasundhara Appartment, Pimple Gurav, Pune",73.8155,18.581934,https://www.zomato.com/pune/ribbons-balloons-1-pimple-gurav,₹250 for one order (approx.)
18552954,Pizza Hut,"Pizza, Fast Food, Desserts, Beverages",3.7,249,3.7,249,3.6,3891,11am – 10pm (Today),"Great Value, Contactless Delivery, Best Food under Best Budget, Wonderful Presentation, Proper Packaging, Timely Service",,"Shop 4, Ground Floor, Unit F & B 4, Tower 2, World Trade Centre, City Hub, Pune Nagar Road, Haveli, Opposite EON Free Zone, Kharadi, Pune",73.9486098289,18.5531035466,https://www.zomato.com/pune/pizza-hut-kharadi,₹600 for two people (approx.)
19875123,Pune Darbar Restaurant ,"North Indian, Mughlai, Maharashtrian",3.5,59,,0,3.5,59,11am – 12midnight (Today),,,"64/3/311, Siddhartnagar, Mumbai- Pune Road, Dapodi, Pimple Gurav, Pune",73.834527517,18.5787314784,https://www.zomato.com/pune/pune-darbar-restaurant-pimple-gurav,₹550 for two people (approx.)
19800818,Hotel Al Zaika,"North Indian, Chinese",3.6,128,,0,3.6,128,12noon – 12midnight (Today),,,"Shop 2, Prime Avenue, S 11, Hissa 914a/1A/9, Kondhwa Khurd, Haveli- South of Mutha River, Pune PMC & Rural, Maharashtra, Kondhwa, Pune",73.89344,18.471502,https://www.zomato.com/pune/hotel-al-zaika-2-kondhwa,₹150 for one order (approx.)
19613240,Jenny's Brownies,"Bakery, Desserts, Beverages, Shake",3.4,90,,0,3.4,90,"12midnight – 2am, 11am – 3pm, 6pm – 12midnight (Today)","Mouth Watering Food, Spill Proof Packaging, Contactless Delivery, Worth the Money, Extensive Menu, Great Portions",,"Unit-T-1, Santoor, Survey-1/7, Dasra Chowk, Balewadi, Pune",73.776727505,18.5768454052,https://www.zomato.com/pune/jennys-brownies-balewadi,₹200 for one order (approx.)
19775929,Royal Cakes,"Bakery, Ice Cream",0,2,,0,,2,,,,"Maharashtra Bank Chowk, Opposite Pooja Hospital, Pimple Gurav, Pune",73.828438,18.588052,https://www.zomato.com/pune/royal-cakes-1-pimple-gurav,₹800 for two people (approx.)
19621811,Late Night Pizza,Pizza,0,0,,0,,0,11am – 11pm (Today),,,"Shop 4, Mega Center, Near Sentosa Residency, Hadapsar, Pune",73.9247784019,18.5060423236,https://www.zomato.com/pune/late-night-pizza-hadapsar,₹150 for one order (approx.)
19480379,Malharnanda Kitchen,"North Indian, Street Food",4,34,,0,4,34,8am – 10pm (Today),,,"G-2, Near Shivanjali Lane 2, Katraj, Pune",73.8507541269,18.4478356022,https://www.zomato.com/pune/malharnanda-kitchen-katraj,₹150 for one order (approx.)
20069374,Eagle Brother's Pizza,"Pizza, Fast Food, Desserts, Beverages",0,4,,,,,11am – 11pm (Today),,,"Shop D-B, Survey 28, Ganga Florentina, Haveli- South Of Mutha River, NIBM Road, Pune",73.9137702846,18.4706939013,https://www.zomato.com/pune/eagle-brothers-pizza-1-nibm-road,₹500 for two people (approx.)
19920055,Pratik Chinese Center,Chinese,0,3,,1,,3,2pm – 11pm (Today),,,"Lohgaon-Dhanori Road, Jakat Naka, Near Khalsa Dairy, Dhanori, Pune",73.910095,18.597268,https://www.zomato.com/pune/pratik-chinese-center-dhanori,₹300 for two people (approx.)
19799742,Shudha Amruttulya,North Indian,3.6,62,,0,3.6,62,,"Great Portions, Worth the Money, Timely Service, Delicious Food",,"Flat B1/404, Street 20, Amba Vatika Society, Kondha Khurd, Near Lonkar Tyres, NIBM Road, Pune",73.8960406,18.4789808,https://www.zomato.com/pune/shudha-amruttulya-nibm-road,₹100 for one order (approx.)
19840045,Navratri Meals By LunchBox,"North Indian, Desserts, Beverages, Shake",0,0,,0,,0,7am – 2am (Today),,,"182, House 2, Near Baner Nagri Bank, Baner, Pune",73.7895957381,18.5597455611,https://www.zomato.com/pune/navratri-meals-by-lunchbox-baner,₹200 for one order (approx.)
19798470,Kamath Non Veg,"North Indian, Chinese",3.7,56,,0,3.7,56,11am – 11pm (Today),,,"House 534/86, Tathawade, Wakad, Pune",73.7494048476,18.611968391,https://www.zomato.com/pune/kamath-non-veg-wakad,₹350 for one order (approx.)
19774447,Hotel New Roshan,South Indian,4,30,,0,4,30,9am – 10pm (Today),,,"Shop 03, Survey 156, Akash Height, Near Mahindra Antheia, Kamgar Nagar, Pimpri, Pune",73.810222,18.629389,https://www.zomato.com/pune/hotel-new-roshan-pimpri,₹350 for two people (approx.)
18729362,Ovenstory Pizza,Pizza,4,2352,,0,4,2352,11am – 1am (Today),,"Veg Overloaded Pizza, Stuffed Crust Pizza, Pizzas, Garlic Bread","Shop 8 & Flat 1, Survey 18/5/2, CTS 640. Ground Floor, Dhanmohini Apartment, Kondhwa, Pune",73.8964197412,18.4786137501,https://www.zomato.com/pune/ovenstory-pizza-kondhwa,₹250 for one order (approx.)
19581935,Unique Maratha Dining Hall,"North Indian, Chinese, Biryani, Rolls",0,2,,0,,2,12noon – 11pm (Today),,,"Shop 3, Ganraj Chowk, Survey 85, Baner, Pune",73.777763,18.564135,https://www.zomato.com/pune/unique-maratha-dining-hall-baner,₹400 for two people (approx.)
18974783,UBQ By Barbeque Nation,"North Indian, BBQ",3.6,2039,,0,3.6,2039,11am – 12midnight (Today),"Excellent Food Quality, Contactless Delivery, Quantity, Good Quality, Fresh Food, Good Food",,"135-136, 10th Floor, Sayaji Hotel, Mumbai-Bangalore Bypass Highway, Wakad, Pune",73.7547142804,18.5995486827,https://www.zomato.com/pune/ubq-by-barbeque-nation-wakad,₹250 for one order (approx.)
19734350,Nilima's Kitchen by Nimo Spices,"Konkan, Biryani",0,0,,0,,0,11am – 8pm (Today),,,"Building M/21/2090, Indrayani Society, Airport Road, Yerwada, Pune",73.8970742281,18.5615356031,https://www.zomato.com/pune/nilimas-kitchen-by-nimo-spices-yerawada,₹350 for one order (approx.)
19810167,Berry Bella The Cake Shop,"Bakery, Fast Food, Desserts",0,3,,0,,3,9am – 11pm (Today),,,"Shop 14, Pristine Square, Ground Floor, Wakad, Pune",73.7589401007,18.5981702128,https://www.zomato.com/pune/berry-bella-the-cake-shop-2-wakad,₹250 for one order (approx.)
19472181,Kaka Halwai,Mithai,3.8,68,,0,3.8,68,8am – 10pm (Today),,,"Shop 4 And 6, Shree Ganga Arcade, CTS 4163, Bhoir Colony, Chinchwad, Pune",73.7879776955,18.6344677865,https://www.zomato.com/pune/kaka-halwai-1-chinchwad,₹100 for one order (approx.)
19725298,The Magic Of Desi Ghee,North Indian,0,0,,0,,0,9am – 10pm (Today),,,"A3-81, Niranjan Complex, Sai Chowk, Pashan, Pune",73.7845152989,18.5434895381,https://www.zomato.com/pune/the-magic-of-desi-ghee-pashan,₹100 for one order (approx.)
19370623,Chitale Ice Cream,"Desserts, Beverages, Ice Cream, Shake",2.7,9,2.7,9,4.5,518,9:30am – 11pm (Today),,,"2003, Near Abhinav Kala Vidayalya, Sadashiv Peth, Pune",73.852757737,18.5061898472,https://www.zomato.com/pune/chitale-ice-cream-sadashiv-peth,₹150 for two people (approx.)
19128145,Aman Chinese Center,Chinese,3.4,5,3.4,5,4,13,1pm – 12midnight (Today),,,"Survey 39/1/1, Mate Nagar, Near Niramay Hospital, Wadgaon Sheri, Pune",73.9244900644,18.5496408367,https://www.zomato.com/pune/aman-chinese-center-wadgaon-sheri,₹500 for two people (approx.)
19568784,Makhni Brothers,"North Indian, Biryani, Beverages, Desserts",3.6,1265,,0,3.6,1265,10am – 2am (Today),"Proper Packaging, Nice Food, Food Quality, Good Food",,"MP 4, Survey 56/1A 6B, 6/541, Apple Ghar Society, Kharadi, Pune",73.9504903927,18.5651010671,https://www.zomato.com/pune/makhni-brothers-kharadi,₹250 for one order (approx.)
20107557,Ande Ka Funda,"Street Food, Momos, Beverages",0,20,,,,,"12midnight – 3am, 11am – 11:55pm (Today)",,,"Survey 76/2, Pancard Road, Near Datta Temple, Baner, Pune",73.7852859497,18.5598087311,https://www.zomato.com/pune/ande-ka-funda-baner,₹100 for one order (approx.)
19539258,You Mee,"Japanese, Asian, Sushi",3.9,350,,0,3.9,350,12noon – 11pm (Today),"Best Food under Best Budget, Tamper Proof Packaging, Mouth Watering Food, Portion Size, Timely Service, Prices","Boiled Eggs, Ramen, Dumplings, Fried Rice, Prawns, Noodles","UG-65, Phoenix Mall, Near Apple Store, Viman Nagar, Pune",73.9166429,18.5627292,https://www.zomato.com/pune/you-mee-viman-nagar,₹250 for one order (approx.)
19666868,Hotel Maratha Darbar,"North Indian, Mughlai, Chinese, Malwani, Kebab, Biryani",0,10,,2,,10,11am – 8pm (Today),,,"Near SKF Compay, Chinchwad, Pune",73.782029897,18.6337983918,https://www.zomato.com/pune/hotel-maratha-darbar-chinchwad,₹600 for two people (approx.)
18461817,P.K. Dum Biryani House,"North Indian, Mughlai, Biryani",4,483,4,483,3.9,6130,"11am – 3:30pm, 7pm – 11pm (Today)","Serving Time, Good Portions, Pocket Friendly, Tandoori, Ambience",,"Shop A-1, Survey 54, Near Navale Birdge, Harshawardhan Pride, Sinhgad Road, Pune",73.8218291849,18.4617753547,https://www.zomato.com/pune/p-k-dum-biryani-house-1-sinhgad-road,₹550 for two people (approx.)
19771088,Chinese Center,Chinese,0,2,,0,,2,"12midnight – 2am, 11am – 12midnight (Today)",,,"Shop 4, 151/17 & 18A/2, Near Mega Center, Sentosa Residency, Hadapsar, Pune",73.9247589558,18.5061497869,https://www.zomato.com/pune/chinese-center-hadapsar,₹250 for one order (approx.)
19621352,The Burning Wok,Chinese,3.7,129,,0,3.7,129,24 Hours (Today),,,"Survey 23/24, Gosavi Wasti, Vandevi Mandir, Karve Nagar, Pune",73.8154991716,18.4927284257,https://www.zomato.com/pune/the-burning-wok-karve-nagar,₹300 for one order (approx.)
19341952,Jain Foods Lucky Bakery,"Bakery, Desserts, Street Food",0,21,,1,,21,,,,"Nava 791/93, Guruwar Peth, Juna 1227/28, Shukrawar Peth, Pune",73.8594676182,18.5052016906,https://www.zomato.com/pune/jain-foods-lucky-bakery-shukrawar-peth,₹250 for two people (approx.)
19248527,Madéline,"Sandwich, Beverages, Fast Food, Bakery",3.8,128,3.8,128,4,38,11am – 11pm (Today),"New Menu, Ambience was Super Cool, Server, Good Wifi, Elaborate Menu, Good Music",,"Shop 2, Modibaug, Ganeshkhind Road, Shivaji Nagar, Pune",73.8420513645,18.5331257264,https://www.zomato.com/pune/madéline-shivaji-nagar,₹600 for two people (approx.)
19256157,Maskawala & Co.,"North Indian, Street Food, Fast Food, Rolls, Beverages, Biryani, Shake",4.2,3158,,0,4.2,3158,8am – 10:30pm (Today),"Breakfast Menu, Cheap, Weekend Brunch, Elaborate Menu, Cafe, Fresh Food","Iranian Chai, Dhansak, Chicken Keema, Mutton Kheema, Cheesecake, Tea","Survey 12/3B, Shop 2, Plot 2, Saket Housing Society, Near Karishma Society, Karve Road, Kothrud, Pune",73.8217969984,18.5008706487,https://www.zomato.com/pune/maskawala-co-kothrud,₹100 for one order (approx.)
18422333,Ovenstory Pizza,Pizza,4.1,3904,,0,4.1,3904,"12midnight – 1am, 11am – 12midnight (Today)","Variety of Pizza, Packing, Good Taste, Flavour, Great Portions, Delicious Food",,"Shop 23, Survey 127/2A, 127/28/2, Skyline Society, Wakad, Pune",73.7593783066,18.6045867717,https://www.zomato.com/pune/ovenstory-pizza-wakad,₹250 for one order (approx.)
18292678,Hotel Chul Mutton,"Maharashtrian, Mughlai, Biryani, North Indian",4,422,4,422,3.8,957,"12:30pm – 3:30pm, 7pm – 11pm (Today)","Excellent Food, Concept, Quick Service, Spicy, Good Taste, Food Quality","Mutton Handi, Mutton Thali, Spicy Chicken, Chicken Thali, Meat","5/1/2, Near Mhatre Bridge, Erandwane Road, Erandwane, Pune",73.8348375633,18.5037518752,https://www.zomato.com/pune/hotel-chul-mutton-erandwane,₹800 for two people (approx.)
20028862,Rhythm,"North Indian, Continental, Oriental, Chinese",0,0,,,,,"11:30am – 3:30pm, 7pm – 12midnight (Today)",,,"5/1, Bhoomi Allium, Near Ranka Jewellers, Pimple Saudagar, Pune",73.7913771,18.5986679,https://www.zomato.com/pune/rhythm-pimple-saudagar,"₹1,200 for two people (approx.) Without alcohol"
19318607,Breakfast 24,"Fast Food, Burger, Sandwich, Beverages, Street Food",3.5,75,,0,3.5,75,12:01am – 12midnight (Today),,,"Pathare Complex, Somnath Mala, Beside Patan Prestige, Colonde Road, Tukaram Nagar, Kharadi, Pune",73.9324535429,18.5483678107,https://www.zomato.com/pune/breakfast-24-kharadi,₹100 for one order (approx.)
19577754,Fries And Bites,"Rolls, Fast Food, Beverages",4,23,,0,4,23,12noon – 11:30pm (Today),,,"Survey 199\204\206, Lunkad Dream Land, Shop 10, Viman Nagar, Pune",73.9162667468,18.5652510825,https://www.zomato.com/pune/fries-and-bites-viman-nagar,₹100 for one order (approx.)
19425791,The Momo Co.,"Chinese, Momos, Desserts",3.5,41,,0,3.5,41,11am – 10pm (Today),,,"Unit FC 1-2, 2nd Floor, Elpro City Square Mall, PCMC Link Road, Pimpri Chinchwad, Chinchwad, Pune",73.78329,18.62862,https://www.zomato.com/pune/the-momo-co-chinchwad,₹200 for one order (approx.)
19053088,Mandarin Oak- The Heavenly Chinese,"Chinese, Momos",3.5,395,,0,3.5,395,11am – 11pm (Today),,"Pepper Paneer, Shanghai Chicken, Manchurian Balls, Noodles, Sauce","Shop 7-11, Serial 24/4/2/1, Hissa 442, Raghunandan Society Limited, A Wing, Hingane Hkurd, Sinhgad Road, Pune",73.8292089477,18.4831472732,https://www.zomato.com/pune/mandarin-oak-the-heavenly-chinese-1-sinhgad-road,₹300 for one order (approx.)
19870454,Hotel Dhanashree Veg Non Veg,"Maharashtrian, North Indian",0,1,,0,,1,"11am – 3:30pm, 7pm – 11:30pm (Today)",,,"54, House 970, Manjai Nagar, Narhe, Pune",73.8244785368,18.4564245648,https://www.zomato.com/pune/hotel-dhanashree-veg-non-veg-narhe,₹500 for two people (approx.)
20082635,The RDS Shawarma With Chinese,"Chinese, Fast Food",0,3,,,,,11am – 11pm (Today),,,"Near Shivba Chowk, Susgaon, Mulshi & Vella, Sus, Pune",73.7531847507,18.5532227409,https://www.zomato.com/pune/the-rds-shawarma-with-chinese-sus,₹150 for one order (approx.)
18494570,Domino's Pizza,"Pizza, Fast Food, Beverages",3.3,145,3.3,145,4.3,4290,10am – 12midnight (Today),,,"Shop 4, Arissa Avenue, Beside HDFC Bank, Foutain Road, Kharadi, Pune",73.9463369921,18.5594213648,https://www.zomato.com/pune/dominos-pizza-3-kharadi,₹400 for two people (approx.)
19864867,Karol Bagh Ke Chole Bhature,North Indian,0,0,,0,,0,8:30am – 10:30pm (Today),,,"Shop 4, Sunflower Building, Mhalunge Road, Baner, Pune",73.7875354,18.5612143,https://www.zomato.com/pune/karol-bagh-ke-chole-bhature-1-baner,₹100 for one order (approx.)
19247609,Tandoor Point,"Chinese, North Indian, Fast Food, Biryani",3.4,108,,0,3.4,108,11am – 12midnight (Today),,,"Shop 2, Prime Avenue, S 11, Hissa 914 A/1a/9, Kondhwa Khurd, Opp Kool Home, Pune, Kondhwa, Pune",73.893451,18.471721,https://www.zomato.com/pune/tandoor-point-kondhwa,₹200 for one order (approx.)
18978310,UBQ by Barbeque Nation,"North Indian, BBQ",3.8,1773,,0,3.8,1773,11am – 12midnight (Today),"Customizable Food, Elaborate Menu, Fresh Food, Good Quality, Service",,"16, 17, 2nd Floor, Amanora Town Center, East Block, Sadestranali, Haveli, Magarpatta, Pune",73.935362,18.518637,https://www.zomato.com/pune/ubq-by-barbeque-nation-magarpatta,₹250 for one order (approx.)
19476797,Ishan Pure Veg,"North Indian, South Indian, Chinese, Fast Food, Juices, Beverages, Shake",3.6,31,3.6,31,4.3,2703,7am – 11pm (Today),"Awesome Spot to Hangout, Pure Veg, Filling Food, Great Veg Options, Delicious Taste, Fresh Food with Good Quality",,"Flat 01, 04, 07, Plot 448, Gokhale Road, Shivaji Nagar, Pune",73.8336201757,18.5342965065,https://www.zomato.com/pune/ishan-pure-veg-shivaji-nagar,₹500 for two people (approx.)
19609938,Mharaj Pav Bhaji & Biryani,"Maharashtrian, Biryani",0,17,,0,,17,11:30am – 12midnight (Today),,,"Survey 88, Plot 1, Alkapuri Society, Paud Road, Kothrud, Pune",73.8068567589,18.5071573322,https://www.zomato.com/pune/mharaj-pav-bhaji-biryani-kothrud,₹150 for one order (approx.)
19097447,Vaishnavi Bhel & Panipuri Center,"Street Food, Sandwich, Beverages",4.3,3656,,3,4.3,3656,11am – 11pm (Today),"Packing, Good Quality, Quantity, Fresh Food",,"Gaothan Road, Dnydeep Colony, Wanawari, Hingne Budrukh, Karve Nagar, Pune",73.8219746947,18.4914149123,https://www.zomato.com/pune/vaishnavi-bhel-panipuri-center-karve-nagar,₹250 for two people (approx.)
6506349,Karolbaug The Dhaba,"North Indian, Mughlai, Maharashtrian, Kebab, Chinese, Ice Cream",4.1,1101,4.1,1101,4.1,4198,"11am – 3pm, 7pm – 11pm (Today)","Live Ghazal Performance, Dhaba Ambience, Dhaba Feel, Singer, Live Music, Band","Dhaba Paneer, Matka Chicken, Jalebi, Masala Papad, Jeera Rice, Manchow Soup","Near MIDC Power House, Begore Quadron IT Park, Hinjawadi, Pune",73.704358153,18.5883969917,https://www.zomato.com/pune/karolbaug-the-dhaba-hinjawadi,₹800 for two people (approx.)
18588530,HealthyBee,"Healthy Food, Fast Food, Beverages, Shake",4.2,1389,,0,4.2,1389,8am – 9pm (Today),"Casual Seating Area, Great Recommendations, Nice Crowd, Healthy Food, Reasonable Prices, Great Ambiance",,"Shop 6, Alacrity Commercial Complex, By Pass Road, Near Bitwise Terra Tower, Baner, Pune",73.7679848447,18.5564959424,https://www.zomato.com/pune/healthybee-baner,₹150 for one order (approx.)
19572884,Mad Over Donuts,"Desserts, Beverages, Shake, Cafe",4.2,309,,2,4.2,309,10am – 11pm (Today),,,"Shop 19&20, S 5, Plot 1, Building Wing A-2, Navkar Avenue, NDA Road, Bavdhan, Pune",73.7778231874,18.5203950806,https://www.zomato.com/pune/mad-over-donuts-bavdhan,₹400 for two people (approx.)
19795818,Egg Era,"Street Food, Sandwich, Rolls",0,9,,0,,9,11am – 10pm (Today),,,"34/8, Chowpati, Opposite Nicmar College, Balewadi, Pune",73.7673085928,18.5753507509,https://www.zomato.com/pune/egg-era-balewadi,₹100 for one order (approx.)
18590366,Raj Darbar,"Chinese, North Indian, Mughlai, Malwani, Street Food, Biryani, Beverages, Kebab",2.9,7,2.9,7,3.3,76,11am – 11:30pm (Today),,,"Opposite Mahesh Galaxy, Sinhgad College Road, Wadgaon BK, Sinhgad Road, Pune",73.8286745176,18.4711761214,https://www.zomato.com/pune/raj-darbar-sinhgad-road,₹600 for two people (approx.)
19775956,Om Shree Pan Darbar,Paan,0,0,,0,,0,1:30pm – 11:30pm (Today),,,"Shop 102, Rameshji Complex, Survey 140/5, Manjari, Haveli- South Of Mutha River, Mundhwa, Pune",73.963566,18.524983,https://www.zomato.com/pune/om-shree-pan-darbar-mundhwa,₹50 for one order (approx.)
19748050,Gayatri's Kitchen,Maharashtrian,3.4,29,,0,3.4,29,10am – 10pm (Today),,,"41/1, Lane 7, Ganesh Puri Society, Warje Malwadi, Near Warje, Pune",73.7999758869,18.4760341961,https://www.zomato.com/pune/gayatris-kitchen-1-warje,₹100 for one order (approx.)
19525924,Chinese Gully,Chinese,3.6,22,,0,3.6,22,Opens tomorrow at 1pm,,,"Gala 2, Survey 59/2, Jadhav Wasti, Near Datta Mandir, Bavdhan, Pune",73.7658520338,18.5105387669,https://www.zomato.com/pune/chinese-gully-bavdhan,₹250 for one order (approx.)
19006840,Hari Om Juice bar,"Juices, Beverages, Shake",3.7,18,3.7,18,4.2,900,9am – 1am (Today),,,"391, Narveer Tanaji Malusare Road, Uma Housing Society, Niranjan Park, Anand Nagar, Sinhgad Road, Pune",73.8212447986,18.4720569896,https://www.zomato.com/pune/hari-om-juice-bar-sinhgad-road,₹200 for two people (approx.)
18891715,Ayush Cafe,"Mughlai, Chinese, North Indian",3.1,5,3.1,5,,3,10am – 11pm (Today),,,"Shop 7, 8, 9, Royale Plaza, Near Hatti Chowk, Survey 4, Dhankawadi, Pune",73.8506998122,18.4677753555,https://www.zomato.com/pune/ayush-cafe-dhankawadi,₹300 for two people (approx.)
19494856,Cafe Corona Go,"Fast Food, Sandwich, Street Food, Shake",0,14,,0,,14,10:30am – 9:30pm (Today),,,"Shop 8, Runwal Platinum, Near Police Station, Bavdhan, Pune",73.7804674821,18.5235350961,https://www.zomato.com/pune/cafe-corona-go-3-bavdhan,₹50 for one order (approx.)
19767775,Don Pancho,"Fast Food, Beverages, Burger, Wraps, Rolls, Shake",3.7,113,,0,3.7,113,"12midnight – 4am, 3pm – 12midnight (Today)",,,"Survey 61/1, Panduran Nagar, Near Ganga Constella, Wadgaon Sheri, Pune",73.924288,18.550388,https://www.zomato.com/pune/don-pancho-wadgaon-sheri,₹200 for one order (approx.)
6508093,The Cake Studio & Cafe,"Bakery, Fast Food, Pizza, Sandwich, Ice Cream, Desserts, Beverages",4.2,476,4.2,476,4.4,1457,10:30am – 9:30pm (Today),"Pool Table, Good Options, Cafe, Friendly Place, Great Ambiance, Interior","Rich Chocolate Truffle, Truffle Pastry, Pastries, Cakes, White Sauce Pasta, Sandwiches","Shop 3-4, Shiv Sagar Apartment, Sadashiv Peth, Pune",73.848692514,18.5089972237,https://www.zomato.com/pune/the-cake-studio-cafe-sadashiv-peth,₹400 for two people (approx.)
18719319,La Cafe Tera,"Maharashtrian, Beverages",3.3,10,3.3,10,3.8,23,9:20am – 10pm (Today),,,"Shop 11, Survey 79/1, Chintamani Nagar Road, Near Eklavya College, Kothrud, Pune",73.7962623686,18.5037169015,https://www.zomato.com/pune/la-cafe-tera-kothrud,₹250 for two people (approx.)
19612855,Hotel Martand,"Maharashtrian, Mughlai",0,13,,1,,13,"12noon – 4pm, 7pm – 10pm (Today)",,,"MRF Showroom, Near Murkute Chowk, Aundh Baner Link Road, Baner, Pune",73.7899119034,18.5626172139,https://www.zomato.com/pune/hotel-martand-baner,₹500 for two people (approx.)
19018219,Hotel Asmita,"Street Food, Maharashtrian, Fast Food",3,15,3,15,3.4,549,8am – 10pm (Today),,,"Shop 1, Kalubai Nagar, Domkhel Road, Wagholi, Pune",73.9828431979,18.5766305673,https://www.zomato.com/pune/hotel-asmita-wagholi,₹150 for two people (approx.)
19921736,7 Brio Family Restaurant,"North Indian, Mughlai, Chinese",0,13,,0,,13,11am – 11:30pm (Today),,,"Ellora Shopee Complex, Plot 2 And 3, Tirupati Balaji Chowk, Indrayani Nagar, Sector 1, Bhosari, Pune",73.8457323611,18.6370862475,https://www.zomato.com/pune/7-brio-family-restaurant-bhosari,₹800 for two people (approx.)
18549381,La Cheezy,"Pizza, Fast Food",3.6,138,,0,3.6,138,10am – 9pm (Today),,,"Shop 1, Survey 46/2/1, Anushila Residency, Chandan Nagar, Pune",73.93101722,18.5594296286,https://www.zomato.com/pune/la-cheezy-1-chandan-nagar,₹150 for one order (approx.)
19834887,Taste Torrent,"North Indian, Chinese, Street Food",0,3,,0,,3,11:30am – 11pm (Today),,,"Survey 4/1, Trimurti Apartment, Pandhari, Kharadi, Pune",73.9369261265,18.5529907092,https://www.zomato.com/pune/taste-torrent-kharadi,₹400 for two people (approx.)
19633058,Nashta,"South Indian, Street Food, Beverages",0,7,,0,,7,,,,"Shop 6, Survey 145/146, TS 6020, Pimpri-Bhosari Road, Pimpri, Pune",73.8141949475,18.6288450436,https://www.zomato.com/pune/nashta-pimpri,₹150 for one order (approx.)
19709846,Arabian Grills,"North Indian, Chinese, Arabian",3.3,10,3.3,10,3.8,354,10am – 1am (Today),"Student Crowd, Worth the Money, Timely Service, Delicious Food, Fresh Food, Good Quality",,"Shop 4, SY Silver Jubilee Building, Near JK Park, Meetha Nagar, Kondhwa, Pune",73.8856292,18.4661524,https://www.zomato.com/pune/arabian-grills-kondhwa,₹500 for two people (approx.)
19842969,Burger HUB,Burger,4,125,,0,4,125,11am – 12midnight (Today),,,"Shop 12, Survey 296/3/2, Tranquil Park, Porwal Road, Dhanori, Pune",73.9111204563,18.6076826584,https://www.zomato.com/pune/burger-hub-dhanori,₹100 for one order (approx.)
19794048,The Welcome Mat,"North Indian, South Indian, Fast Food, Momos, Beverages",0,0,,0,,0,10am – 10pm (Today),,,"Flat 1, Wing-A, Shri Hans Nagari Society, Bhirav Nagar, Dhanori, Pune",73.892139,18.588639,https://www.zomato.com/pune/the-welcome-mat-dhanori,₹150 for one order (approx.)
19434555,Haka,"Chinese, Momos",3.9,662,,0,3.9,662,"11:30am – 3:30pm, 6:30pm – 11pm (Today)","Best Prices, Cute Packaging, Food Presentation, Best Quality, Worth the Money, Great Portions","Chicken Suimai, Veg Fried Wonton, Veg Sweet Corn Soup, Prawns, Chinese Food","Store EB/SF/15, Floor 2, Block East, Amanora Town Centre, Hadapsar, Pune",73.9351508394,18.5183438975,https://www.zomato.com/pune/haka-hadapsar,₹300 for one order (approx.)
19774186,Tandoor And Kabab Express,"Kebab, North Indian",3.1,43,,0,3.1,43,"12midnight – 4am, 12:30pm – 12midnight (Today)",,,"206, Near Dnyandeep Society, Kaspatewasti, Wakad, Pune",73.7719167,18.5959647,https://www.zomato.com/pune/tandoor-and-kabab-express-wakad,₹100 for one order (approx.)
6504363,Eatsome,"Wraps, Biryani, Kebab, North Indian",3.4,153,3.4,153,4,8971,11am – 11pm (Today),,,"Near LMD Garden, Behind Maratha Mandir, Bavdhan, Pune",73.7781976908,18.5110857166,https://www.zomato.com/pune/eatsome-bavdhan,₹400 for two people (approx.)
18778707,Cafe Delhi Heights,"Asian, Cafe, Continental, Modern Indian, Beverages, Desserts",4.4,627,4.4,627,4,38,12noon – 11:30pm (Today),"Managers were Amazing, Nice Food Quality, Themed Decor, Family Place, Friendly Service, Courteous Staff","Panipuri Shots, Wings, Dessert, Drinks","Unit 15, 403A, 2nd Floor, The Pavillion Mall, Serial 1, Senapati Bapat Road, Pune",73.8296179846,18.5337732645,https://www.zomato.com/pune/cafe-delhi-heights-1-senapati-bapat-road,"₹2,000 for two people (approx.) Without alcohol"
19792610,Al Zaika,"North Indian, Chinese, Biryani, Mughlai, Rolls",3.8,175,,0,3.8,175,11am – 11pm (Today),"Cute Packaging, Food Presentation, Timely Service, Worth the Money, Great Portions",,"House 534, Survey 86, Service Road, Tathawade, Wakad, Pune",73.7494242936,18.611872433,https://www.zomato.com/pune/al-zaika-wakad,₹500 for two people (approx.)
19170887,Chao Mung China,"Chinese, Pasta, Desserts, Beverages",3.8,626,,0,3.8,626,11am – 11:30pm (Today),"Very Affordable, Good Wifi, Weekend Brunch, Spill Proof Packaging, Variety of Pizza, Extensive Menu",,"Survey 6/2/23, Opposite Zensar IT Park, Kharadi, Pune",73.9425761998,18.549454254,https://www.zomato.com/pune/chao-mung-china-kharadi,₹250 for one order (approx.)
13182,Satguru's Punjabi Rasoi,"North Indian, Chinese, Mughlai",4.3,2022,4.3,2022,3.9,12K,11am – 11:30pm (Today),"Kid Friendly, Nice Environment, Nice Hotel, Candle Light Dinner, Awesome Food Quality, Good Services","Tandoori Murgh Masala, Chicken Dilruba, Chicken Matka Kebab, Tandoori Pomfret, Soya Chaap, Daal Makhani","Survey 62/1, New Highway Road, Ravet, Pune",73.7333250046,18.6525350447,https://www.zomato.com/pune/satgurus-punjabi-rasoi-ravet,"₹1,000 for two people (approx.) Without alcohol"
18789620,SK Chinese,Chinese,3.2,23,3.2,23,3.7,1840,"12midnight – 4am, 11am – 12midnight (Today)",,,"Shop 50, Survey 78/1A, Bharti Vihar, Katraj, Pune",73.8519078121,18.4572463552,https://www.zomato.com/pune/sk-chinese-katraj,₹300 for two people (approx.)
19505915,Cheesiano Pizza,"Italian, Fast Food, Pizza",3.1,10,3.1,10,3.6,770,11am – 11pm (Today),,,"Shop 2, Survey 15/12A/28/3/5, Sai Vaastu Heights, Pimple Saudagar, Pune",73.8040756434,18.5979026523,https://www.zomato.com/pune/cheesiano-pizza-1-pimple-saudagar,₹500 for two people (approx.)
19428070,Bhavnagari Dry Fruit Co.,Mithai,0,8,,0,,8,Opens tomorrow at 10am,,,"Shop 5 & 6, Gitanjali Kunj, Dr. Ambedkar Road, Opposite Nehru Memorial Hall, Camp Area, Pune",73.8756477088,18.5192938285,https://www.zomato.com/pune/bhavnagari-dry-fruit-co-camp-area,₹100 for one order (approx.)
19518396,Honeycane,"Beverages, Street Food",0,0,,0,,0,9am – 9pm (Today),,,"2, Parth Apartments, Ghodke Chowk, Prabhat Road, Erandwane, Pune",73.8341120258,18.5143435111,https://www.zomato.com/pune/honeycane-erandwane,₹100 for one order (approx.)
19684705,KGN Xprs,"North Indian, Kebab, Biryani, Chinese",2.8,7,2.8,7,3.8,495,11:30am – 12midnight (Today),,,"House 534, Survey 86, Tathawade, Tal- Mulshi, Expressway, Pune",73.7494983897,18.6119035717,https://www.zomato.com/pune/kgn-xprs-1-expressway,₹500 for two people (approx.)
18488930,Kolhapuri Zanzanit Pahunchar,"North Indian, Maharashtrian, Street Food",3.9,151,3.9,151,3.7,3276,"10:30am – 3:30pm, 6:30pm – 10:30pm (Today)","Portion, Price, Food Quality, Good Food, Ambience, Menu","Anda Masala, Pandhra Rassa, Mutton Masala, Egg Masala, Shev Bhaji, Chicken Fry","Survey 275/3, Shop 26, Sundhar Bagh, Tanaji Nagar, Chinchwad, Pune",73.7882851437,18.6299821248,https://www.zomato.com/pune/kolhapuri-zanzanit-pahunchar-chinchwad,₹450 for two people (approx.)
11038,Abhishek Veg Restaurant,"North Indian, South Indian, Street Food, Fast Food, Chinese, Desserts, Beverages",4.2,1205,4.2,1205,4.2,5939,10am – 11pm (Today),"Valet Parking, Family Restaurant, Ample Seating Area, Packed on Weekends, Good Food Quality, Best Restaurant","Sizzling Brownie, Malai Kofta, Veg Crispy, Paneer Tikka Masala, Butter Chicken, Snacks","Survey 28/1 Cts 1175/1, Nirmati Eminence, Near Mehendale Garage, Erandwane, Pune",73.8305835798,18.5040275319,https://www.zomato.com/pune/abhishek-veg-restaurant-erandwane,₹700 for two people (approx.)
19024415,The Good Bowl,"North Indian, Asian, Biryani, Pasta",4.2,714,,0,4.2,714,10am – 12midnight (Today),,,"Shop 7-11, Serial 24/4/2/1, Hissa 442, Raghunandan Society Limited, A Wing, Hingane Hkurd, Sinhgad Road, Pune",73.8293048367,18.4832668342,https://www.zomato.com/pune/the-good-bowl-1-sinhgad-road,₹200 for one order (approx.)
19848626,Slyder ryder,Mexican,4.2,92,,0,4.2,92,11:59am – 12midnight (Today),"Cute Packaging, Contactless Delivery, Extensive Menu, Food Presentation, Worth the Money, Timely Service",,"Survey 12/1, Brahma Suncity Road, Kalyani Nagar, Pune",73.9114308847,18.5505094428,https://www.zomato.com/pune/slyder-ryder-kalyani-nagar,₹300 for one order (approx.)
19154183,McCafe by McDonald's,"Fast Food, Desserts, Beverages",3.8,46,,0,3.8,46,10am – 11pm (Today),,,"138-139, Magarpatta, Hadapsar, Pune",73.9311952516,18.5190992648,https://www.zomato.com/pune/mccafe-by-mcdonalds-1-hadapsar,₹150 for one order (approx.)
11159,Dorabjee & Sons,Parsi,4.2,1155,4.2,1155,4.2,772,Opens tomorrow at 10:30am,"Quiet Place, Cozy Place, Cutlery, Good Quality Food, Preparation, Fast Service","Dhansak Dal, Mutton Dhansak, Chicken Farcha, Parsi Cuisine, Chicken Cutlets, Mutton Kheema","Shop 845, Dastur Meher Road, Sarbatwalla Chowk, Camp Area, Pune",73.8769800961,18.5152073075,https://www.zomato.com/pune/dorabjee-sons-camp-area,₹600 for two people (approx.)
19933652,Shree Ganesh Fast Food,"Street Food, South Indian",0,0,,0,,0,8am – 10pm (Today),,,"Shop 2, Survey 687/1, Unity Heights, Opposite Bhagali Hospital, Bibvewadi, Pune",73.8580242544,18.4746601353,https://www.zomato.com/pune/shree-ganesh-fast-food-bibvewadi,₹200 for two people (approx.)
19790601,Biryani King,"North Indian, Chinese, Maharashtrian, Biryani",3.5,22,,0,3.5,22,11am – 11pm (Today),,,"Survey 86, 534, Tathwade Dashmesh Hotel, Wakad, Pune",73.7494055182,18.6119633071,https://www.zomato.com/pune/biryani-king-wakad,₹400 for one order (approx.)
19935411,Agile Hyderabadi Dum Biryani,Biryani,0,12,,0,,12,10:30am – 11:29pm (Today),,,"Shop 1, Sadaba Dada, Tupe Colony, Type Complex, Near Amanora Park Town, Hadapsar, Pune",73.941909,18.512689,https://www.zomato.com/pune/agile-hyderabadi-dum-biryani-hadapsar,₹350 for one order (approx.)
19701338,KGN Xprs,"North Indian, Kebab, Biryani, Chinese",3.4,1,3.4,1,4.2,203,11am – 11pm (Today),,,"Shop 6, Survey 34/13 B/1, Bharati Vidyapith Road, Ambegaon, Katraj, Pune",73.8510575518,18.4528908849,https://www.zomato.com/pune/kgn-xprs-katraj,₹500 for two people (approx.)
18534422,Starbucks Coffee,"Cafe, Beverages, Fast Food, Desserts",4.1,276,4.1,276,4.1,2598,8am – 10pm (Today),"Free Wifi, Soft Music, Cafe, Great Ambience, Friendly Staff, Young Crowd","Latte Coffee, Java Chip Frappuccino, Cheese Croissant, Hot Chocolate, Pastries, Cheesecake","Shop 9, Cummins India Office Complex, Balewadi High Street, Baner, Pune",73.7747497112,18.5702860539,https://www.zomato.com/pune/starbucks-coffee-baner,₹600 for two people (approx.)
12013,Cafe Coffee Day,"Cafe, Fast Food, Beverages, Desserts",2.4,368,2.4,368,4,216,8am – 11pm (Today),"Crowd, Perfect Place, Awesome Place, Best Place, Location, Good Place","Hot Coffee, Cappuccino, Sandwiches, Chocolate","20/4/3/6, Bavdhan Khurd, Bavdhan, Pune",73.7829398364,18.5081324422,https://www.zomato.com/pune/cafe-coffee-day-bavdhan,₹350 for two people (approx.)
19474308,Cady Chinese,"Chinese, Momos, Seafood, Fast Food, Asian",3.8,55,,3,3.8,55,11am – 12midnight (Today),,,"Survey 6/2/23, Haveli, South Main Road, Opposite Zensar IT Park, Kharadi, Pune",73.9407020062,18.5499011622,https://www.zomato.com/pune/cady-chinese-kharadi,₹500 for two people (approx.)
19842071,Delhi Chaap Express,"North Indian, Momos, Burger",4,29,,2,4,29,5pm – 11:30pm (Today),,,"Shop 10, D.S.Tupe Food Corner, Near Z Corner, Mundhwa, Manjari Road, Pune",73.955511,18.526086,https://www.zomato.com/pune/delhi-chaap-express-1-magarpatta,₹200 for two people (approx.)
19971838,Scooper Dooper,"Desserts, Ice Cream, Beverages",0,2,,0,,2,12:30pm – 12midnight (Today),,,"Survey 40, Near Govind Garden, Kate Vasti Road, Pimple Saudagar, Pune",73.8038047403,18.5948987645,https://www.zomato.com/pune/scooper-dooper-1-pimple-saudagar,₹100 for two people (approx.)
19651904,FoodGinie,North Indian,4,1582,,0,4,1582,9:30am – 11pm (Today),"Food Taste, Worth the Money, Great Portions, Quantity, Good Food, Fresh Food",,"Survey 165, Opposite Vedanta Co-Operative Housing Society, Wakad, Pune",73.7617010996,18.5938539216,https://www.zomato.com/pune/foodginie-wakad,₹200 for one order (approx.)
18747233,Mr. Manchurian,"Chinese, Thai",3.5,46,3.5,46,4,380,11:30am – 11pm (Today),"Lip Smacking Food, Amazing Food, Polite Staff, Worth the Money, Quantity",,"Shop 18, 2nd Floor, East Block, Amanora Park Town, Hadapsar, Pune",73.9362559095,18.5184736073,https://www.zomato.com/pune/mr-manchurian-hadapsar,₹500 for two people (approx.)
20026589,Banda Nawaz Express,"Chinese, Mughlai, Biryani",0,12,,,,,11am – 11pm (Today),,,"297/1, D.Y. Patil Road, Lohegaon, Pune",73.9098510742,18.6157131195,https://www.zomato.com/pune/banda-nawaz-express-lohegaon,₹500 for two people (approx.)
6503282,Khandeshi Zatka,"North Indian, Maharashtrian",3.8,222,3.8,222,4.2,8901,"11am – 3pm, 7pm – 12midnight (Today)","Nice Taste, Good Taste, Price, Quantity, Staff",,"Shop 13, Shivamrit Apartments, Paud Road, Kothrud, Pune",73.7915145233,18.5085362194,https://www.zomato.com/pune/khandeshi-zatka-kothrud,₹500 for two people (approx.)
19188799,Snack Shack Sandwich,"Sandwich, Fast Food, Beverages",3.9,52,,3,3.9,52,11am – 9pm (Today),,,"Shop 10, LIC Lane, Opposite ONP Hospital, Shivaji Nagar, Pune",73.8475398347,18.5314068934,https://www.zomato.com/pune/snack-shack-sandwich-1-shivaji-nagar,₹150 for two people (approx.)
20079051,S.P. Crazy Cafe & Fast Food,"Italian, Burger, Sandwich, Coffee, Shake",0,2,,,,,12:03am – 12midnight (Today),,,"Shop 6, Mean Chowk, Karve Nagar, Pune",73.8144967,18.4889267,https://www.zomato.com/pune/s-p-crazy-cafe-fast-food-karve-nagar,₹500 for two people (approx.)
18517117,Hotel New Sanket,"Chinese, North Indian, Malwani",3.4,93,,2,3.4,93,11:30am – 11pm (Today),,,"J Block, Indryani Nagar, MIDC, Bhosari, Pune",73.839221634,18.637126277,https://www.zomato.com/pune/hotel-new-sanket-bhosari,₹750 for two people (approx.) Without alcohol
19607607,Raspurti,"South Indian, Sandwich",4,35,,0,4,35,9am – 9pm (Today),,,"Shop 1, Survey 1050/1051, Hirabaug Chowk, Shukrawar Peth, Pune",73.8548300788,18.504408109,https://www.zomato.com/pune/raspurti-1-shukrawar-peth,₹100 for one order (approx.)
19793290,SK Dum Biryani,Biryani,0,15,,0,,15,11am – 11pm (Today),,,"Shop 14, Chandrarang Heritage, Dnyanesh Park, Near Krishna Chowk, Pimple Gurav, Pune",73.8171373308,18.5815428504,https://www.zomato.com/pune/sk-dum-biryani-pimple-gurav,₹300 for two people (approx.)
10164,Baasuri Pure Veg,"South Indian, North Indian, Chinese, Fast Food, Desserts, Beverages, Shake",3.9,370,3.9,370,4.1,10.7K,,"Ample Seating Area, Family Place, Good Food Quality, Presentation, Great Service, Worth the Money","Masala Papad, Pav Bhaji, Thali, Ice Cream, Noodles","S-63/2, Shop-1.2.3.8, Satara Road, Parvati, Pune",73.8570033386,18.4802078264,https://www.zomato.com/pune/baasuri-pure-veg-parvati,₹600 for two people (approx.)
19530490,Taste Of Malabar,"Chinese, Kerala, Biryani",3.8,60,,0,3.8,60,11am – 11pm (Today),,,"Flat 2, Mulavi Apartment, Viveknagar, Akurdi, Pune",73.7817164138,18.6523190317,https://www.zomato.com/pune/taste-of-malabar-akurdi,₹150 for one order (approx.)
19690274,Roll Project,Rolls,3.4,63,,0,3.4,63,8am – 11pm (Today),,,"Shop 103, Palace Orchard, Nibm, Undri, Pune",73.903944,18.463389,https://www.zomato.com/pune/roll-project-undri,₹200 for one order (approx.)
19426373,Baker's Basket,"Bakery, Desserts, Fast Food",3.7,35,,0,3.7,35,11:30am – 10pm (Today),,,"Unit F & B 24, Ground Floor, Survey 20 & 21, Balewadi High Street, Balewadi, Pune",73.7740178034,18.570574316,https://www.zomato.com/pune/bakers-basket-balewadi,₹300 for one order (approx.)
20104389,Shakes And Cones,"Sandwich, Pizza, Fast Food, Desserts, Beverages",0,1,,,,,11am – 11:30pm (Today),,,"Shop 7, Kingston Court, Survey 1, NIBM Annex, Mohammadwadi, NIBM Road, Pune",73.914162,18.4711704,https://www.zomato.com/pune/shakes-and-cones-nibm-road,₹100 for one order (approx.)
19588784,Yummy China,"Chinese, Momos",0,2,,0,,2,11am – 10:30pm (Today),,,"Survey 169/1, Unit 12 & 13, Westend Mall, Aundh, Pune",73.8071444258,18.5617625566,https://www.zomato.com/pune/yummy-china-aundh,₹200 for one order (approx.)
18654561,Healthy Craving,"North Indian, Fast Food",4.1,200,4.1,200,3.8,1987,9am – 11pm (Today),"Healthy Food, Best Place, Menu, Service","Exotic Fruit Salad, Chicken Grilled Sandwich, Corn Sandwich, Chicken Salad","Shreenath Corner, Jayram Nagar, Phase 1, Behind Persistent Company, Hinjawadi, Pune",73.7386408076,18.5887567248,https://www.zomato.com/pune/healthy-craving-hinjawadi,₹400 for two people (approx.)
19794156,Malhar Snacks Center,"Street Food, Beverages",3.5,30,,0,3.5,30,9am – 11pm (Today),,,"Survey 6/4/7, Near Sankrest Jagtap Dairy Road, Pimple Saudagar, Pune",73.7895705923,18.5984276043,https://www.zomato.com/pune/malhar-snacks-center-pimple-saudagar,₹50 for one order (approx.)
11469,Copa Cabana,"North Indian, Continental, Asian, Italian, Salad, Biryani, Sandwich, Burger",4.3,3811,4.3,3811,3.8,4000,"11:30am – 3:30pm, 7pm – 10pm (Today)","Ambience is the Best, Romantic Atmosphere, Romantic Candle Light Dinner, Classy Place, Outdoor Ambience, Romantic Place","Veg Aftabi, Paneer Chop Masala, Drunken Chicken, Chicken Shashlik, Hot Wings, Sundae","Aundh Wakad Road, Vishal Nagar, Pimple Nilakh, Pune",73.7823453918,18.5885422198,https://www.zomato.com/pune/copa-cabana-pimple-nilakh,"₹1,600 for two people (approx.) Without alcohol"
19729472,Jalebi Experiment,"Mithai, Street Food, Beverages",3.8,36,,0,3.8,36,"12midnight – 4am, 7am – 12midnight (Today)",,,"House 318-319, Satyam Sahakari Society, Near Mangal Murti Garden, Lane 2, Indira Shankar Nagari, Kothrud, Pune",73.7985345349,18.5085158716,https://www.zomato.com/pune/jalebi-experiment-kothrud,₹200 for one order (approx.)
19527362,Mother's Kitchen,"North Indian, Chinese, Mughlai, Biryani, Beverages, Desserts",3.5,17,3.5,17,3.9,566,"11am – 4pm, 6pm – 11pm (Today)","Recommended Place, Contactless Delivery, Proper Packaging, Portion Size, Mouth Watering Food, Delicious Taste","Paneer Karahi, Sarso Ka Saag Makke Ki Roti, Tikka Masala, Paneer Lababdar, Veg Crispy, Khichdi","Shop E-26, Kumar Parisar, Near Gandhi Bhavan Road, Kothrud, Pune",73.8021605462,18.4970676225,https://www.zomato.com/pune/mothers-kitchen-3-kothrud,₹700 for two people (approx.)
19707321,W S Bakers,Bakery,3.9,262,,0,3.9,262,8am – 12midnight (Today),,,"Shop 20, Hissa 1/1A, Patang Plaza, Opposite PICT College, Katraj, Pune",73.8508553803,18.4570701668,https://www.zomato.com/pune/w-s-bakers-katraj,₹400 for two people (approx.)
19091142,Super Noor Caterers,"Biryani, North Indian",3.4,31,,0,3.4,31,11am – 2am (Today),,,"Shop 1, PDEA School, Kharadi, Pune",73.9454307407,18.5485569375,https://www.zomato.com/pune/super-noor-caterers-kharadi,₹150 for one order (approx.)
19535786,Aarav's Kitchen,North Indian,4,26,,0,4,26,10am – 11pm (Today),"Worth the Money, Great Portions, Timely Service, Delicious Food",,"Survey 87, Lane 2, Shrinath Nagar, Near Ganraj Mangal Karyalaya, Baner, Pune",73.7752519548,18.5625987795,https://www.zomato.com/pune/aaravs-kitchen-1-baner,₹100 for one order (approx.)
19459462,Shanghai Chef Chinese,Chinese,3.8,333,,0,3.8,333,"12midnight – 4am, 12noon – 12midnight (Today)",,,"Shop D-2, D-3, Koyena Building, Shri Nagari Society, Hadapsar, Pune",73.9392026514,18.5189622434,https://www.zomato.com/pune/shanghai-chef-chinese-hadapsar,₹200 for one order (approx.)
19786688,Lazeez,"North Indian, Mughlai",0,1,,0,,1,10am – 11pm (Today),,,"Building 02, Clover Corner, Konak Nagar, Opposite Udaan Biodiversity Park, Viman Nagar, Pune",73.910949938,18.565463392,https://www.zomato.com/pune/lazeez-viman-nagar,₹250 for one order (approx.)
19508206,What'A Sandwich,"Sandwich, Burger, Salad, Fast Food",3.9,923,,0,3.9,923,3pm – 3am (Today),,,"17/1, Lonkar Residency, Durga Colony, Thergaon, Wakad, Pune",73.7626445666,18.6079384243,https://www.zomato.com/pune/whata-sandwich-wakad,₹150 for one order (approx.)
19458955,Chef De Burger,"Fast Food, Burger",4.3,2385,,0,4.3,2385,"12midnight – 4am, 4pm – 12midnight (Today)","Delicious Taste, Contactless Delivery, Mouth Watering Food, Fresh Food with Good Quality, Proper Packaging, Best Food under Best Budget",,"House 6, Survey 32/1, Aryanagar, Near Bajaj Finserv, Viman Nagar, Pune",73.9120496437,18.5609787726,https://www.zomato.com/pune/chef-de-burger-1-viman-nagar,₹200 for one order (approx.)
18656978,Keventers Milkshakes and Desserts,"Beverages, Ice Cream, Desserts",3.5,118,3.5,118,4.2,3095,10am – 2am (Today),"No Plastic Cups, Affordable Prices, Tamper Proof Packaging, Wonderful Presentation, Family Crowd, Great Portions",,"Shop 52, Survey 62/12, Ground Floor, D Wing, Girme Heights, Salunkhe Vihar Road, Pune",73.9023551345,18.4812317415,https://www.zomato.com/pune/keventers-milkshakes-and-desserts-salunkhe-vihar-road,₹300 for two people (approx.)
19835171,ZAZA 22 Spice Biryani,Biryani,3.7,60,,0,3.7,60,11am – 1am (Today),,,"PT Gera First Floor, Unit 14, Opposite Axis Bank, Dhole Patil Road, Pune",73.87887302,18.53459242,https://www.zomato.com/pune/zaza-22-spice-biryani-dhole-patil-road,₹200 for one order (approx.)
19703949,The Chinese Point,Chinese,3.6,48,,2,3.6,48,11am – 11pm (Today),,,"Shop 3, Nanaware Wasti, Sus Gaon Road, Baner, Pune",73.7708279863,18.5517342366,https://www.zomato.com/pune/the-chinese-point-1-baner,₹200 for two people (approx.)
19700148,China Club,"Chinese, Street Food",3.3,22,,0,3.3,22,"11am – 3pm, 7pm – 11pm (Today)","Healthy and Delicious, Proper Packaging, Great Portions, Quantity, Food",,"Shop 4, Survey 111/10, Krishna Avenue, Opposite D Mart, Phase 2, Baner, Pune",73.7691281363,18.5609314149,https://www.zomato.com/pune/china-club-baner,₹100 for one order (approx.)
19727383,Jagdamb Juice Bar,"Beverages, Shake",3.4,20,,0,3.4,20,24 Hours (Today),,,"Survey 174, Krishna Complex, Datta Mandir Road, Shankar Kalat Nagar, Wakad, Pune",73.7641928717,18.6016007965,https://www.zomato.com/pune/jagdamb-juice-bar-wakad,₹200 for two people (approx.)
18825011,Ganesh Bhel,"Street Food, Sandwich, Fast Food",3.7,24,3.7,24,4.1,1630,5pm – 9:30pm (Today),,,"Shop 11, Shanti Heights, Eklavya College Chowk, D P Road, Kothrud, Pune",73.7963656336,18.503244437,https://www.zomato.com/pune/ganesh-bhel-7-kothrud,₹200 for two people (approx.)
20030775,Veer ji Malai Chaap Wale ,"North Indian, Chinese, Beverages",0,34,,,,,12noon – 11:15pm (Today),,,"Shop 3, Peshwa Garden, Nagar Road and Sangamwadi, Viman Nagar, Pune",73.912668,18.565115,https://www.zomato.com/pune/veer-ji-malai-chaap-wale-viman-nagar,₹400 for two people (approx.)
19619631,Gajamukham Pure Veg Restaurant,"North Indian, Chinese, Fast Food, Desserts, Shake",3.7,43,3.7,43,3.6,67,7:30am – 11pm (Today),"Great Place for Family, Awesome Spot to Hangout, Best in Service, Tasty Appetizers, Comforting Atmosphere, Filling Food",,"M 3591, Fursungi, South Of Mutha River, Bekrai Nagar, Hadapsar, Pune",73.9543977007,18.4829669775,https://www.zomato.com/pune/gajamukham-pure-veg-restaurant-hadapsar,₹700 for two people (approx.)
20082362,Urban Parathas & More,Maharashtrian,0,0,,,,,12noon – 12midnight (Today),,,"17/1/4, Sudarshan Colony 2, Wakad, Pune",73.7640601024,18.6053999062,https://www.zomato.com/pune/urban-parathas-more-wakad,₹100 for one order (approx.)
10602,Good Food Kitchen,"Rolls, North Indian, Fast Food, Chinese",4,335,4,335,4.1,5062,10am – 11pm (Today),"Combos, Best Food, Perfect Place, Tasty Food, Great Place, Prices","Chicken Fried Rice, Rolls, Ice Tea, Parathas, Cold Coffee, Noodles","Opposite Bhartiya Vidhya Bhavan School, Off Senapati Bapat Road, Model Colony, Pune",73.8313322514,18.5317909064,https://www.zomato.com/pune/good-food-kitchen-model-colony,₹400 for two people (approx.)
19753516,Cheesiano Pizza,"Italian, Fast Food, Pizza",3.8,544,,0,3.8,544,11am – 11pm (Today),"Quick Delivery, Tamper Proof Packaging, Best Food under Best Budget, Packing, Price, Taste",,"Shop 15, Survey 122/2, Business Guild, Law College Road, Erandwane, Pune",73.8290859014,18.5148477373,https://www.zomato.com/pune/cheesiano-pizza-erandwane,₹250 for one order (approx.)
19577335,Rerore,North Indian,0,4,,0,,4,11am – 10pm (Today),,,"Shop 15, Survey 73/1, Kharadi, Pune",73.9529124275,18.5549384937,https://www.zomato.com/pune/rerore-kharadi,₹250 for one order (approx.)
19945118,Chaayos Chai+Snacks=Relax,"Tea, Street Food, Fast Food, Beverages",4.1,410,,0,4.1,410,7am – 1am (Today),,,"Shop 11-13, Survey 220/5/3, Maan Road, Mulshi, Hinjawadi, Pune",73.7295729294,18.583254187,https://www.zomato.com/pune/chaayos-chai-snacks-relax-hinjawadi,₹150 for one order (approx.)
19449787,Nothing But Chicken,"Fast Food, Salad, Raw Meats, Finger Food",4.2,1004,,0,4.2,1004,8am – 11pm (Today),"Extensive Menu, Food Presentation, Worth the Money, Cute Packaging, Great Portions, Timely Service",,"Shop 5, Sai Apex, Datta Mandir Chowk, Viman Nagar, Pune",73.9142554253,18.5650352765,https://www.zomato.com/pune/nothing-but-chicken-1-viman-nagar,₹200 for one order (approx.)
